[
  {
    "state": "Arizona Pokémon Automated Retail Vending Machine Locations",
    "address": "150 E Old West Hwy,Apache Junction, AZ",
    "lat": 33.4123787,
    "lng": -111.545017
  },
  {
    "state": "Arizona Pokémon Automated Retail Vending Machine Locations",
    "address": "1575 N Dysart Rd,Avondale, AZ",
    "lat": 33.4630586,
    "lng": -112.3388995
  },
  {
    "state": "Arizona Pokémon Automated Retail Vending Machine Locations",
    "address": "11425 W Buckeye Rd,Avondale, AZ",
    "lat": 33.433967,
    "lng": -112.3044385
  },
  {
    "state": "Arizona Pokémon Automated Retail Vending Machine Locations",
    "address": "1300 S Watson Rd,Buckeye, AZ",
    "lat": 33.4343044,
    "lng": -112.5580337
  },
  {
    "state": "Arizona Pokémon Automated Retail Vending Machine Locations",
    "address": "19600 W Indian School Rd,Buckeye, AZ",
    "lat": 33.4956364,
    "lng": -112.482007
  },
  {
    "state": "Arizona Pokémon Automated Retail Vending Machine Locations",
    "address": "4625 S Miller Rd,Buckeye, AZ",
    "lat": 33.4052696,
    "lng": -112.5881458
  },
  {
    "state": "Arizona Pokémon Automated Retail Vending Machine Locations",
    "address": "1385 E Florence Blvd,Casa Grande, AZ",
    "lat": 32.8785549,
    "lng": -111.7277431
  },
  {
    "state": "Arizona Pokémon Automated Retail Vending Machine Locations",
    "address": "2858 N Pinal Ave,Casa Grande, AZ",
    "lat": 32.9404469,
    "lng": -111.7545069
  },
  {
    "state": "Arizona Pokémon Automated Retail Vending Machine Locations",
    "address": "1637 N Trekell Rd,Casa Grande, AZ",
    "lat": 32.8960527,
    "lng": -111.7404824
  },
  {
    "state": "Arizona Pokémon Automated Retail Vending Machine Locations",
    "address": "2010 S Alma School Rd,Chandler, AZ",
    "lat": 33.2755663,
    "lng": -111.8609223
  },
  {
    "state": "Arizona Pokémon Automated Retail Vending Machine Locations",
    "address": "2929 E Ocotillo Rd,Chandler, AZ",
    "lat": 33.2459799,
    "lng": -111.7914627
  },
  {
    "state": "Arizona Pokémon Automated Retail Vending Machine Locations",
    "address": "1159 W Chandler Blvd,Chandler, AZ",
    "lat": 33.3039879,
    "lng": -111.8630068
  },
  {
    "state": "Arizona Pokémon Automated Retail Vending Machine Locations",
    "address": "1060 E Ray Rd,Chandler, AZ",
    "lat": 33.322012,
    "lng": -111.8222044
  },
  {
    "state": "Arizona Pokémon Automated Retail Vending Machine Locations",
    "address": "3145 S Alma School Rd,Chandler, AZ",
    "lat": 33.2606668,
    "lng": -111.8570449
  },
  {
    "state": "Arizona Pokémon Automated Retail Vending Machine Locations",
    "address": "222 W Willis Rd,Chandler, AZ",
    "lat": 33.2857797,
    "lng": -111.8449667
  },
  {
    "state": "Arizona Pokémon Automated Retail Vending Machine Locations",
    "address": "3325 N Hunt Hwy,Florence, AZ",
    "lat": 33.0626129,
    "lng": -111.4837624
  },
  {
    "state": "Arizona Pokémon Automated Retail Vending Machine Locations",
    "address": "855 W Warner Rd,Gilbert, AZ",
    "lat": 33.3340271,
    "lng": -111.8086036
  },
  {
    "state": "Arizona Pokémon Automated Retail Vending Machine Locations",
    "address": "87 E Williams Field Rd,Gilbert, AZ",
    "lat": 33.3051781,
    "lng": -111.7407503
  },
  {
    "state": "Arizona Pokémon Automated Retail Vending Machine Locations",
    "address": "714 S Val Vista Dr,Gilbert, AZ",
    "lat": 33.3367192,
    "lng": -111.7566219
  },
  {
    "state": "Arizona Pokémon Automated Retail Vending Machine Locations",
    "address": "6470 S Higley Rd,Gilbert, AZ",
    "lat": 33.2325413,
    "lng": -111.7232075
  },
  {
    "state": "Arizona Pokémon Automated Retail Vending Machine Locations",
    "address": "1845 E Baseline Rd,Gilbert, AZ",
    "lat": 33.3770574,
    "lng": -111.7912722
  },
  {
    "state": "Arizona Pokémon Automated Retail Vending Machine Locations",
    "address": "1363 N Arizona Ave,Gilbert, AZ",
    "lat": 33.3741978,
    "lng": -111.8402762
  },
  {
    "state": "Arizona Pokémon Automated Retail Vending Machine Locations",
    "address": "1455 N Higley Rd,Gilbert, AZ",
    "lat": 33.3767974,
    "lng": -111.7201041
  },
  {
    "state": "Arizona Pokémon Automated Retail Vending Machine Locations",
    "address": "3490 S Power Rd,Gilbert, AZ",
    "lat": 33.3523835,
    "lng": -111.6900248
  },
  {
    "state": "Arizona Pokémon Automated Retail Vending Machine Locations",
    "address": "3261 E Pecos Rd,Gilbert, AZ",
    "lat": 33.2905417,
    "lng": -111.719966
  },
  {
    "state": "Arizona Pokémon Automated Retail Vending Machine Locations",
    "address": "20220 N 59th Ave,Glendale, AZ",
    "lat": 33.6695764,
    "lng": -112.1881041
  },
  {
    "state": "Arizona Pokémon Automated Retail Vending Machine Locations",
    "address": "5116 W Olive Ave,Glendale, AZ",
    "lat": 33.5677121,
    "lng": -112.1700045
  },
  {
    "state": "Arizona Pokémon Automated Retail Vending Machine Locations",
    "address": "4329 W Northern Ave,Glendale, AZ",
    "lat": 33.5524507,
    "lng": -112.1532057
  },
  {
    "state": "Arizona Pokémon Automated Retail Vending Machine Locations",
    "address": "5850 W Bell Rd,Glendale, AZ",
    "lat": 33.6414546,
    "lng": -112.1830743
  },
  {
    "state": "Arizona Pokémon Automated Retail Vending Machine Locations",
    "address": "6625 W Happy Valley Rd,Glendale, AZ",
    "lat": 33.7106832,
    "lng": -112.2017032
  },
  {
    "state": "Arizona Pokémon Automated Retail Vending Machine Locations",
    "address": "16380 W Yuma Rd,Goodyear, AZ",
    "lat": 33.4377009,
    "lng": -112.4112048
  },
  {
    "state": "Arizona Pokémon Automated Retail Vending Machine Locations",
    "address": "14175 W Indian School Rd,Goodyear, AZ",
    "lat": 33.4848411,
    "lng": -112.3639531
  },
  {
    "state": "Arizona Pokémon Automated Retail Vending Machine Locations",
    "address": "440 N Estrella Pkwy,Goodyear, AZ",
    "lat": 33.4515194,
    "lng": -112.3945943
  },
  {
    "state": "Arizona Pokémon Automated Retail Vending Machine Locations",
    "address": "9890 Estrella Pkwy,Goodyear, AZ",
    "lat": 33.3576587,
    "lng": -112.4285876
  },
  {
    "state": "Arizona Pokémon Automated Retail Vending Machine Locations",
    "address": "1305 W Duval Mine Rd,Green Valley, AZ",
    "lat": 31.9008585,
    "lng": -110.9926897
  },
  {
    "state": "Arizona Pokémon Automated Retail Vending Machine Locations",
    "address": "260 W Continental Rd,Green Valley, AZ",
    "lat": 31.8527914,
    "lng": -110.9965818
  },
  {
    "state": "Arizona Pokémon Automated Retail Vending Machine Locations",
    "address": "5140 W Baseline Rd,Laveen Village, AZ",
    "lat": 33.379552,
    "lng": -112.1703002
  },
  {
    "state": "Arizona Pokémon Automated Retail Vending Machine Locations",
    "address": "5035 W Baseline Rd,Laveen Village, AZ",
    "lat": 33.3763662,
    "lng": -112.1662459
  },
  {
    "state": "Arizona Pokémon Automated Retail Vending Machine Locations",
    "address": "13730 W Camelback Rd,Litchfield Park, AZ",
    "lat": 33.5099315,
    "lng": -112.3557436
  },
  {
    "state": "Arizona Pokémon Automated Retail Vending Machine Locations",
    "address": "11350 W Tangerine Rd,Marana, AZ",
    "lat": 32.42655209999999,
    "lng": -111.2051456
  },
  {
    "state": "Arizona Pokémon Automated Retail Vending Machine Locations",
    "address": "12100 N Thornydale Rd,Marana, AZ",
    "lat": 32.4261894,
    "lng": -111.0451093
  },
  {
    "state": "Arizona Pokémon Automated Retail Vending Machine Locations",
    "address": "20797 N John Wayne Pkwy,Maricopa, AZ",
    "lat": 33.0698622,
    "lng": -112.0442836
  },
  {
    "state": "Arizona Pokémon Automated Retail Vending Machine Locations",
    "address": "1935 N Stapley Dr,Mesa, AZ",
    "lat": 33.450506,
    "lng": -111.8039457
  },
  {
    "state": "Arizona Pokémon Automated Retail Vending Machine Locations",
    "address": "435 S Ellsworth Rd,Mesa, AZ",
    "lat": 33.3693668,
    "lng": -111.6406765
  },
  {
    "state": "Arizona Pokémon Automated Retail Vending Machine Locations",
    "address": "2724 S Signal Butte Rd,Mesa, AZ",
    "lat": 33.3657468,
    "lng": -111.6040292
  },
  {
    "state": "Arizona Pokémon Automated Retail Vending Machine Locations",
    "address": "2727 E Broadway Rd,Mesa, AZ",
    "lat": 33.4071522,
    "lng": -111.7730176
  },
  {
    "state": "Arizona Pokémon Automated Retail Vending Machine Locations",
    "address": "1225 W Guadalupe Rd,Mesa, AZ",
    "lat": 33.3630868,
    "lng": -111.8597464
  },
  {
    "state": "Arizona Pokémon Automated Retail Vending Machine Locations",
    "address": "1902 W Main St,Mesa, AZ",
    "lat": 33.4166239,
    "lng": -111.8733471
  },
  {
    "state": "Arizona Pokémon Automated Retail Vending Machine Locations",
    "address": "3622 E Southern Ave,Mesa, AZ",
    "lat": 33.3946965,
    "lng": -111.7517777
  },
  {
    "state": "Arizona Pokémon Automated Retail Vending Machine Locations",
    "address": "4316 S Signal Butte Rd,Mesa, AZ",
    "lat": 33.3370636,
    "lng": -111.6028419
  },
  {
    "state": "Arizona Pokémon Automated Retail Vending Machine Locations",
    "address": "1855 N Power Rd,Mesa, AZ",
    "lat": 33.4497378,
    "lng": -111.6821888
  },
  {
    "state": "Arizona Pokémon Automated Retail Vending Machine Locations",
    "address": "12122 N Rancho Vistoso Blvd,Oro Valley, AZ",
    "lat": 32.4268813,
    "lng": -110.9594187
  },
  {
    "state": "Arizona Pokémon Automated Retail Vending Machine Locations",
    "address": "10661 N Oracle Rd,Oro Valley, AZ",
    "lat": 32.400764,
    "lng": -110.9579284
  },
  {
    "state": "Arizona Pokémon Automated Retail Vending Machine Locations",
    "address": "7455 W Cactus Rd,Peoria, AZ",
    "lat": 33.5945149,
    "lng": -112.2188417
  },
  {
    "state": "Arizona Pokémon Automated Retail Vending Machine Locations",
    "address": "8375 W Deer Valley Rd,Peoria, AZ",
    "lat": 33.6803068,
    "lng": -112.2399851
  },
  {
    "state": "Arizona Pokémon Automated Retail Vending Machine Locations",
    "address": "9043 W Olive Ave,Peoria, AZ",
    "lat": 33.5646351,
    "lng": -112.2537236
  },
  {
    "state": "Arizona Pokémon Automated Retail Vending Machine Locations",
    "address": "25401 N Lake Pleasant Pkwy,Peoria, AZ",
    "lat": 33.7145016,
    "lng": -112.2676482
  },
  {
    "state": "Arizona Pokémon Automated Retail Vending Machine Locations",
    "address": "10641 W Olive Ave,Peoria, AZ",
    "lat": 33.5638291,
    "lng": -112.2886048
  },
  {
    "state": "Arizona Pokémon Automated Retail Vending Machine Locations",
    "address": "3616 E Ray Rd,Phoenix, AZ",
    "lat": 33.3167931,
    "lng": -112.0054548
  },
  {
    "state": "Arizona Pokémon Automated Retail Vending Machine Locations",
    "address": "1815 W Glendale Ave,Phoenix, AZ",
    "lat": 33.537189,
    "lng": -112.0980965
  },
  {
    "state": "Arizona Pokémon Automated Retail Vending Machine Locations",
    "address": "520 E Baseline Rd,Phoenix, AZ",
    "lat": 33.3792087,
    "lng": -112.0661739
  },
  {
    "state": "Arizona Pokémon Automated Retail Vending Machine Locations",
    "address": "3949 E Chandler Blvd,Phoenix, AZ",
    "lat": 33.3036792,
    "lng": -111.998902
  },
  {
    "state": "Arizona Pokémon Automated Retail Vending Machine Locations",
    "address": "4025 E Thunderbird Rd,Phoenix, AZ",
    "lat": 33.6110512,
    "lng": -111.9946165
  },
  {
    "state": "Arizona Pokémon Automated Retail Vending Machine Locations",
    "address": "26300 Norterra Pkwy,Phoenix, AZ",
    "lat": 33.7235655,
    "lng": -112.1141734
  },
  {
    "state": "Arizona Pokémon Automated Retail Vending Machine Locations",
    "address": "1311 E Bell Rd,Phoenix, AZ",
    "lat": 33.63852190000001,
    "lng": -112.0536113
  },
  {
    "state": "Arizona Pokémon Automated Retail Vending Machine Locations",
    "address": "3246 E Bell Rd,Phoenix, AZ",
    "lat": 33.6419718,
    "lng": -112.0116806
  },
  {
    "state": "Arizona Pokémon Automated Retail Vending Machine Locations",
    "address": "4230 W McDowell Rd,Phoenix, AZ",
    "lat": 33.4681191,
    "lng": -112.1502426
  },
  {
    "state": "Arizona Pokémon Automated Retail Vending Machine Locations",
    "address": "39508 N Daisy Mountain Dr,Phoenix, AZ",
    "lat": 33.8447401,
    "lng": -112.1343821
  },
  {
    "state": "Arizona Pokémon Automated Retail Vending Machine Locations",
    "address": "744 W Camelback Rd,Phoenix, AZ",
    "lat": 33.510509,
    "lng": -112.0841518
  },
  {
    "state": "Arizona Pokémon Automated Retail Vending Machine Locations",
    "address": "100 E Jefferson St,Phoenix, AZ",
    "lat": 33.4478157,
    "lng": -112.0721208
  },
  {
    "state": "Arizona Pokémon Automated Retail Vending Machine Locations",
    "address": "3036 E Thomas Rd,Phoenix, AZ",
    "lat": 33.4817932,
    "lng": -112.016555
  },
  {
    "state": "Arizona Pokémon Automated Retail Vending Machine Locations",
    "address": "4204 W Cactus Rd,Phoenix, AZ",
    "lat": 33.5978296,
    "lng": -112.1499143
  },
  {
    "state": "Arizona Pokémon Automated Retail Vending Machine Locations",
    "address": "3511 W Peoria Ave,Phoenix, AZ",
    "lat": 33.5808267,
    "lng": -112.135551
  },
  {
    "state": "Arizona Pokémon Automated Retail Vending Machine Locations",
    "address": "4724 N 20th St,Phoenix, AZ",
    "lat": 33.5069176,
    "lng": -112.0413959
  },
  {
    "state": "Arizona Pokémon Automated Retail Vending Machine Locations",
    "address": "4707 E Shea Blvd,Phoenix, AZ",
    "lat": 33.5810348,
    "lng": -111.978999
  },
  {
    "state": "Arizona Pokémon Automated Retail Vending Machine Locations",
    "address": "4505 E Thomas Rd,Phoenix, AZ",
    "lat": 33.4792616,
    "lng": -111.9840842
  },
  {
    "state": "Arizona Pokémon Automated Retail Vending Machine Locations",
    "address": "2250 E Baseline Rd,Phoenix, AZ",
    "lat": 33.379523,
    "lng": -112.0318193
  },
  {
    "state": "Arizona Pokémon Automated Retail Vending Machine Locations",
    "address": "2800 W Dove Valley Rd,Phoenix, AZ",
    "lat": 33.7860388,
    "lng": -112.1195555
  },
  {
    "state": "Arizona Pokémon Automated Retail Vending Machine Locations",
    "address": "4005 E Chandler Blvd,Phoenix, AZ",
    "lat": 33.3039795,
    "lng": -111.9958448
  },
  {
    "state": "Arizona Pokémon Automated Retail Vending Machine Locations",
    "address": "1334 E Chandler Blvd,Phoenix, AZ",
    "lat": 33.3065342,
    "lng": -112.0539713
  },
  {
    "state": "Arizona Pokémon Automated Retail Vending Machine Locations",
    "address": "810 E Glendale Ave,Phoenix, AZ",
    "lat": 33.5394755,
    "lng": -112.0623406
  },
  {
    "state": "Arizona Pokémon Automated Retail Vending Machine Locations",
    "address": "4747 E Elliot Rd,Phoenix, AZ",
    "lat": 33.347971,
    "lng": -111.9821513
  },
  {
    "state": "Arizona Pokémon Automated Retail Vending Machine Locations",
    "address": "6202 S 16th St,Phoenix, AZ",
    "lat": 33.3904348,
    "lng": -112.0491252
  },
  {
    "state": "Arizona Pokémon Automated Retail Vending Machine Locations",
    "address": "3132 E Camelback Rd,Phoenix, AZ",
    "lat": 33.5113798,
    "lng": -112.0147546
  },
  {
    "state": "Arizona Pokémon Automated Retail Vending Machine Locations",
    "address": "520 W Osborn Rd,Phoenix, AZ",
    "lat": 33.4885602,
    "lng": -112.0813573
  },
  {
    "state": "Arizona Pokémon Automated Retail Vending Machine Locations",
    "address": "4747 E Greenway Rd,Phoenix, AZ",
    "lat": 33.6244667,
    "lng": -111.978891
  },
  {
    "state": "Arizona Pokémon Automated Retail Vending Machine Locations",
    "address": "330 W Bell Rd,Phoenix, AZ",
    "lat": 33.6413284,
    "lng": -112.0796144
  },
  {
    "state": "Arizona Pokémon Automated Retail Vending Machine Locations",
    "address": "13440 N 7th St,Phoenix, AZ",
    "lat": 33.608965,
    "lng": -112.0669191
  },
  {
    "state": "Arizona Pokémon Automated Retail Vending Machine Locations",
    "address": "8035 N 19th Ave,Phoenix, AZ",
    "lat": 33.5544644,
    "lng": -112.0982299
  },
  {
    "state": "Arizona Pokémon Automated Retail Vending Machine Locations",
    "address": "8325 W Indian School Rd,Phoenix, AZ",
    "lat": 33.4926347,
    "lng": -112.2390044
  },
  {
    "state": "Arizona Pokémon Automated Retail Vending Machine Locations",
    "address": "3421 W Thunderbird Rd,Phoenix, AZ",
    "lat": 33.6092285,
    "lng": -112.1321233
  },
  {
    "state": "Arizona Pokémon Automated Retail Vending Machine Locations",
    "address": "2727 W Bell Rd,Phoenix, AZ",
    "lat": 33.6382203,
    "lng": -112.1199412
  },
  {
    "state": "Arizona Pokémon Automated Retail Vending Machine Locations",
    "address": "22265 E Queen Creek Rd,Queen Creek, AZ",
    "lat": 33.2609661,
    "lng": -111.6031092
  },
  {
    "state": "Arizona Pokémon Automated Retail Vending Machine Locations",
    "address": "25105 S Ellsworth Rd,Queen Creek, AZ",
    "lat": 33.2207745,
    "lng": -111.632241
  },
  {
    "state": "Arizona Pokémon Automated Retail Vending Machine Locations",
    "address": "40950 N Ironwood Dr,Queen Creek, AZ",
    "lat": 33.251092,
    "lng": -111.5651743
  },
  {
    "state": "Arizona Pokémon Automated Retail Vending Machine Locations",
    "address": "18495 E Queen Creek Rd,Queen Creek, AZ",
    "lat": 33.2648665,
    "lng": -111.684052
  },
  {
    "state": "Arizona Pokémon Automated Retail Vending Machine Locations",
    "address": "155 W Combs Rd,San Tan Valley, AZ",
    "lat": 33.2182384,
    "lng": -111.565648
  },
  {
    "state": "Arizona Pokémon Automated Retail Vending Machine Locations",
    "address": "542 E Hunt Hwy,San Tan Valley, AZ",
    "lat": 33.1606416,
    "lng": -111.5602719
  },
  {
    "state": "Arizona Pokémon Automated Retail Vending Machine Locations",
    "address": "8900 E Vía Linda,Scottsdale, AZ",
    "lat": 33.5705495,
    "lng": -111.8889224
  },
  {
    "state": "Arizona Pokémon Automated Retail Vending Machine Locations",
    "address": "10450 N 90th St,Scottsdale, AZ",
    "lat": 33.5808199,
    "lng": -111.8894874
  },
  {
    "state": "Arizona Pokémon Automated Retail Vending Machine Locations",
    "address": "7770 E McDowell Rd,Scottsdale, AZ",
    "lat": 33.4672995,
    "lng": -111.9130312
  },
  {
    "state": "Arizona Pokémon Automated Retail Vending Machine Locations",
    "address": "6501 E Greenway Pkwy Bldg 4,Scottsdale, AZ",
    "lat": 33.6242057,
    "lng": -111.9418682
  },
  {
    "state": "Arizona Pokémon Automated Retail Vending Machine Locations",
    "address": "7920 E Chaparral Rd,Scottsdale, AZ",
    "lat": 33.5106988,
    "lng": -111.9103297
  },
  {
    "state": "Arizona Pokémon Automated Retail Vending Machine Locations",
    "address": "10660 Grand Ave,Sun City, AZ",
    "lat": 33.6006554,
    "lng": -112.2888301
  },
  {
    "state": "Arizona Pokémon Automated Retail Vending Machine Locations",
    "address": "19403 N R H Johnson Blvd,Sun City West, AZ",
    "lat": 33.6612784,
    "lng": -112.3532858
  },
  {
    "state": "Arizona Pokémon Automated Retail Vending Machine Locations",
    "address": "15215 N Cotton Ln,Surprise, AZ",
    "lat": 33.6225082,
    "lng": -112.4246159
  },
  {
    "state": "Arizona Pokémon Automated Retail Vending Machine Locations",
    "address": "13982 W Waddell Rd,Surprise, AZ",
    "lat": 33.6094496,
    "lng": -112.3613124
  },
  {
    "state": "Arizona Pokémon Automated Retail Vending Machine Locations",
    "address": "16400 W Pat Tillman Blvd,Surprise, AZ",
    "lat": 33.7085949,
    "lng": -112.423726
  },
  {
    "state": "Arizona Pokémon Automated Retail Vending Machine Locations",
    "address": "17049 W Bell Rd,Surprise, AZ",
    "lat": 33.6380149,
    "lng": -112.4250486
  },
  {
    "state": "Arizona Pokémon Automated Retail Vending Machine Locations",
    "address": "13828 W Waddell Rd,Surprise, AZ",
    "lat": 33.6097277,
    "lng": -112.3572473
  },
  {
    "state": "Arizona Pokémon Automated Retail Vending Machine Locations",
    "address": "16925 W Bell Rd,Surprise, AZ",
    "lat": 33.6375857,
    "lng": -112.4229772
  },
  {
    "state": "Arizona Pokémon Automated Retail Vending Machine Locations",
    "address": "3232 S Mill Ave,Tempe, AZ",
    "lat": 33.3938824,
    "lng": -111.941371
  },
  {
    "state": "Arizona Pokémon Automated Retail Vending Machine Locations",
    "address": "1835 E Guadalupe Rd,Tempe, AZ",
    "lat": 33.3621468,
    "lng": -111.9091421
  },
  {
    "state": "Arizona Pokémon Automated Retail Vending Machine Locations",
    "address": "3255 S Rural Rd,Tempe, AZ",
    "lat": 33.3940147,
    "lng": -111.924451
  },
  {
    "state": "Arizona Pokémon Automated Retail Vending Machine Locations",
    "address": "926 E Broadway Rd,Tempe, AZ",
    "lat": 33.408954,
    "lng": -111.9252345
  },
  {
    "state": "Arizona Pokémon Automated Retail Vending Machine Locations",
    "address": "9900 S Rural Rd,Tempe, AZ",
    "lat": 33.3219007,
    "lng": -111.9302009
  },
  {
    "state": "Arizona Pokémon Automated Retail Vending Machine Locations",
    "address": "9401 E 22nd St,Tucson, AZ",
    "lat": 32.2077765,
    "lng": -110.7918385
  },
  {
    "state": "Arizona Pokémon Automated Retail Vending Machine Locations",
    "address": "7050 E Golf Links Rd,Tucson, AZ",
    "lat": 32.1911877,
    "lng": -110.8417411
  },
  {
    "state": "Arizona Pokémon Automated Retail Vending Machine Locations",
    "address": "4752 E Sunrise Dr,Tucson, AZ",
    "lat": 32.3071215,
    "lng": -110.891335
  },
  {
    "state": "Arizona Pokémon Automated Retail Vending Machine Locations",
    "address": "1940 E Broadway Blvd,Tucson, AZ",
    "lat": 32.2207636,
    "lng": -110.9428399
  },
  {
    "state": "Arizona Pokémon Automated Retail Vending Machine Locations",
    "address": "2140 W Grant Rd,Tucson, AZ",
    "lat": 32.25258,
    "lng": -111.0127312
  },
  {
    "state": "Arizona Pokémon Automated Retail Vending Machine Locations",
    "address": "9050 E Valencia Rd,Tucson, AZ",
    "lat": 32.1178697,
    "lng": -110.7988632
  },
  {
    "state": "Arizona Pokémon Automated Retail Vending Machine Locations",
    "address": "9125 E Tanque Verde Rd,Tucson, AZ",
    "lat": 32.2589674,
    "lng": -110.7970848
  },
  {
    "state": "Arizona Pokémon Automated Retail Vending Machine Locations",
    "address": "9100 N Silverbell Rd,Tucson, AZ",
    "lat": 32.3722404,
    "lng": -111.1368583
  },
  {
    "state": "Arizona Pokémon Automated Retail Vending Machine Locations",
    "address": "1350 N Silverbell Rd,Tucson, AZ",
    "lat": 32.2387847,
    "lng": -111.0041263
  },
  {
    "state": "Arizona Pokémon Automated Retail Vending Machine Locations",
    "address": "2940 W Valencia Rd,Tucson, AZ",
    "lat": 32.1352,
    "lng": -111.0299178
  },
  {
    "state": "Arizona Pokémon Automated Retail Vending Machine Locations",
    "address": "6360 E Golf Links Rd,Tucson, AZ",
    "lat": 32.1906399,
    "lng": -110.856037
  },
  {
    "state": "Arizona Pokémon Automated Retail Vending Machine Locations",
    "address": "555 E Grant Rd,Tucson, AZ",
    "lat": 32.2516624,
    "lng": -110.9624923
  },
  {
    "state": "Arizona Pokémon Automated Retail Vending Machine Locations",
    "address": "13380 E Mary Ann Cleveland Way,Vail, AZ",
    "lat": 32.0500625,
    "lng": -110.7087079
  },
  {
    "state": "California Pokémon Automated Retail Vending Machine Locations",
    "address": "2227 S Shore Center,Alameda, CA",
    "lat": 37.7586725,
    "lng": -122.2508322
  },
  {
    "state": "California Pokémon Automated Retail Vending Machine Locations",
    "address": "2600 5th St,Alameda, CA",
    "lat": 37.7854764,
    "lng": -122.2805096
  },
  {
    "state": "California Pokémon Automated Retail Vending Machine Locations",
    "address": "103 American Canyon Rd,American Canyon, CA",
    "lat": 38.16463359999999,
    "lng": -122.2550716
  },
  {
    "state": "California Pokémon Automated Retail Vending Machine Locations",
    "address": "1616 W Katella Ave,Anaheim, CA",
    "lat": 33.8019412,
    "lng": -117.9378978
  },
  {
    "state": "California Pokémon Automated Retail Vending Machine Locations",
    "address": "810 S State College Blvd,Anaheim, CA",
    "lat": 33.831224,
    "lng": -117.8885341
  },
  {
    "state": "California Pokémon Automated Retail Vending Machine Locations",
    "address": "5600 E Santa Ana Canyon Rd,Anaheim, CA",
    "lat": 33.8503336,
    "lng": -117.7919409
  },
  {
    "state": "California Pokémon Automated Retail Vending Machine Locations",
    "address": "16 Rancho del Mar,Aptos, CA",
    "lat": 36.9795018,
    "lng": -121.9085301
  },
  {
    "state": "California Pokémon Automated Retail Vending Machine Locations",
    "address": "298 Live Oak Ave,Arcadia, CA",
    "lat": 34.107885,
    "lng": -118.023108
  },
  {
    "state": "California Pokémon Automated Retail Vending Machine Locations",
    "address": "745 W Naomi Ave,Arcadia, CA",
    "lat": 34.1249401,
    "lng": -118.0576848
  },
  {
    "state": "California Pokémon Automated Retail Vending Machine Locations",
    "address": "9635 Laurel Canyon Blvd,Arleta, CA",
    "lat": 34.2438571,
    "lng": -118.4175881
  },
  {
    "state": "California Pokémon Automated Retail Vending Machine Locations",
    "address": "2550 Bell Rd,Auburn, CA",
    "lat": 38.9440043,
    "lng": -121.0937879
  },
  {
    "state": "California Pokémon Automated Retail Vending Machine Locations",
    "address": "3000 Baldwin Park Blvd,Baldwin Park, CA",
    "lat": 34.0683921,
    "lng": -117.9793525
  },
  {
    "state": "California Pokémon Automated Retail Vending Machine Locations",
    "address": "300 S Highland Springs Ave,Banning, CA",
    "lat": 33.9246459,
    "lng": -116.9463772
  },
  {
    "state": "California Pokémon Automated Retail Vending Machine Locations",
    "address": "6901 Eastern Ave,Bell Gardens, CA",
    "lat": 33.9706927,
    "lng": -118.1661175
  },
  {
    "state": "California Pokémon Automated Retail Vending Machine Locations",
    "address": "1100 El Camino Real,Belmont, CA",
    "lat": 37.5186137,
    "lng": -122.2757614
  },
  {
    "state": "California Pokémon Automated Retail Vending Machine Locations",
    "address": "50 Solano Square,Benicia, CA",
    "lat": 38.0548033,
    "lng": -122.1557116
  },
  {
    "state": "California Pokémon Automated Retail Vending Machine Locations",
    "address": "1444 Shattuck Pl,Berkeley, CA",
    "lat": 37.8808169,
    "lng": -122.2701069
  },
  {
    "state": "California Pokémon Automated Retail Vending Machine Locations",
    "address": "6700 Lone Tree Wy,Brentwood, CA",
    "lat": 37.9647745,
    "lng": -121.7292674
  },
  {
    "state": "California Pokémon Automated Retail Vending Machine Locations",
    "address": "301 N Pass Ave,Burbank, CA",
    "lat": 34.1551624,
    "lng": -118.3465601
  },
  {
    "state": "California Pokémon Automated Retail Vending Machine Locations",
    "address": "26521 Agoura Rd,Calabasas, CA",
    "lat": 34.1448958,
    "lng": -118.6997694
  },
  {
    "state": "California Pokémon Automated Retail Vending Machine Locations",
    "address": "940 Arneill RD,Camarillo, CA",
    "lat": 34.22612890000001,
    "lng": -119.0385325
  },
  {
    "state": "California Pokémon Automated Retail Vending Machine Locations",
    "address": "3380 Coach Ln,Cameron Park, CA",
    "lat": 38.6563828,
    "lng": -120.9709612
  },
  {
    "state": "California Pokémon Automated Retail Vending Machine Locations",
    "address": "2341 S Winchester Blvd,Campbell, CA",
    "lat": 37.2806263,
    "lng": -121.9502228
  },
  {
    "state": "California Pokémon Automated Retail Vending Machine Locations",
    "address": "950 W Hamilton Ave,Campbell, CA",
    "lat": 37.2928872,
    "lng": -121.966685
  },
  {
    "state": "California Pokémon Automated Retail Vending Machine Locations",
    "address": "2560 El Camino Real,Carlsbad, CA",
    "lat": 33.1787141,
    "lng": -117.3247364
  },
  {
    "state": "California Pokémon Automated Retail Vending Machine Locations",
    "address": "6951 El Camino Real,Carlsbad, CA",
    "lat": 33.1034861,
    "lng": -117.268622
  },
  {
    "state": "California Pokémon Automated Retail Vending Machine Locations",
    "address": "4040 Manzanita Ave,Carmichael, CA",
    "lat": 38.6381405,
    "lng": -121.3261849
  },
  {
    "state": "California Pokémon Automated Retail Vending Machine Locations",
    "address": "200 E Sepulveda Blvd,Carson, CA",
    "lat": 33.8063827,
    "lng": -118.2725788
  },
  {
    "state": "California Pokémon Automated Retail Vending Machine Locations",
    "address": "4015 E Castro Valley Blvd,Castro Valley, CA",
    "lat": 37.6947386,
    "lng": -122.0504513
  },
  {
    "state": "California Pokémon Automated Retail Vending Machine Locations",
    "address": "12013 Central Ave,Chino, CA",
    "lat": 34.0349077,
    "lng": -117.687926
  },
  {
    "state": "California Pokémon Automated Retail Vending Machine Locations",
    "address": "15970 Los Serranos Country Club Dr,Chino Hills, CA",
    "lat": 33.9614709,
    "lng": -117.6955129
  },
  {
    "state": "California Pokémon Automated Retail Vending Machine Locations",
    "address": "3255 Grand Ave,Chino Hills, CA",
    "lat": 34.0016731,
    "lng": -117.7342238
  },
  {
    "state": "California Pokémon Automated Retail Vending Machine Locations",
    "address": "1745 Eastlake Pkwy,Chula Vista, CA",
    "lat": 32.619656,
    "lng": -116.9609202
  },
  {
    "state": "California Pokémon Automated Retail Vending Machine Locations",
    "address": "2250 Otay Lakes Rd,Chula Vista, CA",
    "lat": 32.6457363,
    "lng": -116.9662935
  },
  {
    "state": "California Pokémon Automated Retail Vending Machine Locations",
    "address": "720 3rd Ave,Chula Vista, CA",
    "lat": 32.6271077,
    "lng": -117.0744388
  },
  {
    "state": "California Pokémon Automated Retail Vending Machine Locations",
    "address": "659 E Palomar St,Chula Vista, CA",
    "lat": 32.6159413,
    "lng": -117.0251274
  },
  {
    "state": "California Pokémon Automated Retail Vending Machine Locations",
    "address": "7301 Greenback Ln,Citrus Heights, CA",
    "lat": 38.6800592,
    "lng": -121.2940175
  },
  {
    "state": "California Pokémon Automated Retail Vending Machine Locations",
    "address": "1150 N Pepper Ave,Colton, CA",
    "lat": 34.0798013,
    "lng": -117.3512727
  },
  {
    "state": "California Pokémon Automated Retail Vending Machine Locations",
    "address": "1900 W Rosecrans Ave,Compton, CA",
    "lat": 33.9024858,
    "lng": -118.2526065
  },
  {
    "state": "California Pokémon Automated Retail Vending Machine Locations",
    "address": "2600 Willow Pass Rd,Concord, CA",
    "lat": 37.9781161,
    "lng": -122.0281611
  },
  {
    "state": "California Pokémon Automated Retail Vending Machine Locations",
    "address": "4309 Clayton Rd,Concord, CA",
    "lat": 37.9661551,
    "lng": -121.9907644
  },
  {
    "state": "California Pokémon Automated Retail Vending Machine Locations",
    "address": "260 W Foothill Pkwy,Corona, CA",
    "lat": 33.8436448,
    "lng": -117.5742681
  },
  {
    "state": "California Pokémon Automated Retail Vending Machine Locations",
    "address": "535 N McKinley St,Corona, CA",
    "lat": 33.8913722,
    "lng": -117.5201397
  },
  {
    "state": "California Pokémon Automated Retail Vending Machine Locations",
    "address": "11800 De Palma Rd,Corona, CA",
    "lat": 33.7473282,
    "lng": -117.4530693
  },
  {
    "state": "California Pokémon Automated Retail Vending Machine Locations",
    "address": "137 Corte Madera Town Center,Corte Madera, CA",
    "lat": 37.9280248,
    "lng": -122.5177382
  },
  {
    "state": "California Pokémon Automated Retail Vending Machine Locations",
    "address": "2701 Harbor Blvd,Costa Mesa, CA",
    "lat": 33.67238140000001,
    "lng": -117.9205734
  },
  {
    "state": "California Pokémon Automated Retail Vending Machine Locations",
    "address": "380 E 17th St,Costa Mesa, CA",
    "lat": 33.6318821,
    "lng": -117.9123644
  },
  {
    "state": "California Pokémon Automated Retail Vending Machine Locations",
    "address": "11030 Jefferson Blvd,Culver City, CA",
    "lat": 33.9967446,
    "lng": -118.3937633
  },
  {
    "state": "California Pokémon Automated Retail Vending Machine Locations",
    "address": "20620 W Homestead Rd,Cupertino, CA",
    "lat": 37.3361552,
    "lng": -122.0345557
  },
  {
    "state": "California Pokémon Automated Retail Vending Machine Locations",
    "address": "601 Westlake Center,Daly City, CA",
    "lat": 37.6995007,
    "lng": -122.4815738
  },
  {
    "state": "California Pokémon Automated Retail Vending Machine Locations",
    "address": "3496 Camino Tassajara,Danville, CA",
    "lat": 37.7980968,
    "lng": -121.9177944
  },
  {
    "state": "California Pokémon Automated Retail Vending Machine Locations",
    "address": "1235 Stratford Ave,Dixon, CA",
    "lat": 38.45689000000001,
    "lng": -121.8389139
  },
  {
    "state": "California Pokémon Automated Retail Vending Machine Locations",
    "address": "13525 Lakewood Blvd,Downey, CA",
    "lat": 33.9052371,
    "lng": -118.1444952
  },
  {
    "state": "California Pokémon Automated Retail Vending Machine Locations",
    "address": "8626 Firestone Blvd,Downey, CA",
    "lat": 33.9359952,
    "lng": -118.1271349
  },
  {
    "state": "California Pokémon Automated Retail Vending Machine Locations",
    "address": "7499 Dublin Blvd,Dublin, CA",
    "lat": 37.7056474,
    "lng": -121.9270447
  },
  {
    "state": "California Pokémon Automated Retail Vending Machine Locations",
    "address": "4440 Tassajara Rd,Dublin, CA",
    "lat": 37.7066995,
    "lng": -121.8741391
  },
  {
    "state": "California Pokémon Automated Retail Vending Machine Locations",
    "address": "7070 Archibald Ave,Eastvale, CA",
    "lat": 33.9598294,
    "lng": -117.5918373
  },
  {
    "state": "California Pokémon Automated Retail Vending Machine Locations",
    "address": "6170 Hamner Ave,Eastvale, CA",
    "lat": 33.9765251,
    "lng": -117.5578394
  },
  {
    "state": "California Pokémon Automated Retail Vending Machine Locations",
    "address": "1608 Broadway,El Cajon, CA",
    "lat": 32.8086789,
    "lng": -116.9201467
  },
  {
    "state": "California Pokémon Automated Retail Vending Machine Locations",
    "address": "1201 Avocado Ave,El Cajon, CA",
    "lat": 32.7788563,
    "lng": -116.9564046
  },
  {
    "state": "California Pokémon Automated Retail Vending Machine Locations",
    "address": "2899 Jamacha Rd,El Cajon, CA",
    "lat": 32.7391588,
    "lng": -116.937525
  },
  {
    "state": "California Pokémon Automated Retail Vending Machine Locations",
    "address": "11450 San Pablo Ave,El Cerrito, CA",
    "lat": 37.92268170000001,
    "lng": -122.3160379
  },
  {
    "state": "California Pokémon Automated Retail Vending Machine Locations",
    "address": "1000 El Cerrito Plaza,El Cerrito, CA",
    "lat": 37.9005527,
    "lng": -122.2981725
  },
  {
    "state": "California Pokémon Automated Retail Vending Machine Locations",
    "address": "2207 Francisco Dr,El Dorado Hills, CA",
    "lat": 38.7113892,
    "lng": -121.0838482
  },
  {
    "state": "California Pokémon Automated Retail Vending Machine Locations",
    "address": "3383 Bass Lake Rd,El Dorado Hills, CA",
    "lat": 38.6751377,
    "lng": -121.0283194
  },
  {
    "state": "California Pokémon Automated Retail Vending Machine Locations",
    "address": "5021 Laguna Blvd,Elk Grove, CA",
    "lat": 38.4242462,
    "lng": -121.4465999
  },
  {
    "state": "California Pokémon Automated Retail Vending Machine Locations",
    "address": "8124 Sheldon Rd,Elk Grove, CA",
    "lat": 38.4379847,
    "lng": -121.4074476
  },
  {
    "state": "California Pokémon Automated Retail Vending Machine Locations",
    "address": "3889 San Pablo Ave,Emeryville, CA",
    "lat": 37.8292821,
    "lng": -122.2800984
  },
  {
    "state": "California Pokémon Automated Retail Vending Machine Locations",
    "address": "1570 W Valley Pkwy,Escondido, CA",
    "lat": 33.1087309,
    "lng": -117.1057928
  },
  {
    "state": "California Pokémon Automated Retail Vending Machine Locations",
    "address": "1000 W El Norte Pkwy,Escondido, CA",
    "lat": 33.1485783,
    "lng": -117.1067548
  },
  {
    "state": "California Pokémon Automated Retail Vending Machine Locations",
    "address": "351 W Felicita Ave,Escondido, CA",
    "lat": 33.1031634,
    "lng": -117.0732483
  },
  {
    "state": "California Pokémon Automated Retail Vending Machine Locations",
    "address": "644 N Broadway,Escondido, CA",
    "lat": 33.128628,
    "lng": -117.0833577
  },
  {
    "state": "California Pokémon Automated Retail Vending Machine Locations",
    "address": "5450 Dewey Dr,Fair Oaks, CA",
    "lat": 38.6652393,
    "lng": -121.3072479
  },
  {
    "state": "California Pokémon Automated Retail Vending Machine Locations",
    "address": "2401 Waterman Blvd,Fairfield, CA",
    "lat": 38.2720448,
    "lng": -122.0528487
  },
  {
    "state": "California Pokémon Automated Retail Vending Machine Locations",
    "address": "1133 S Mission Rd,Fallbrook, CA",
    "lat": 33.3718783,
    "lng": -117.2560377
  },
  {
    "state": "California Pokémon Automated Retail Vending Machine Locations",
    "address": "636 Ventura St,Fillmore, CA",
    "lat": 34.3950319,
    "lng": -118.9162363
  },
  {
    "state": "California Pokémon Automated Retail Vending Machine Locations",
    "address": "200 Blue Ravine Rd,Folsom, CA",
    "lat": 38.6559776,
    "lng": -121.1746586
  },
  {
    "state": "California Pokémon Automated Retail Vending Machine Locations",
    "address": "1850 Prairie City Rd,Folsom, CA",
    "lat": 38.6501927,
    "lng": -121.1641036
  },
  {
    "state": "California Pokémon Automated Retail Vending Machine Locations",
    "address": "14338 Foothill Blvd,Fontana, CA",
    "lat": 34.107411,
    "lng": -117.4920485
  },
  {
    "state": "California Pokémon Automated Retail Vending Machine Locations",
    "address": "7390 Cherry Ave,Fontana, CA",
    "lat": 34.1197828,
    "lng": -117.4904151
  },
  {
    "state": "California Pokémon Automated Retail Vending Machine Locations",
    "address": "921 E Hillsdale Blvd,Foster City, CA",
    "lat": 37.556792,
    "lng": -122.2759497
  },
  {
    "state": "California Pokémon Automated Retail Vending Machine Locations",
    "address": "16061 Brookhurst St,Fountain Valley, CA",
    "lat": 33.7290517,
    "lng": -117.9566604
  },
  {
    "state": "California Pokémon Automated Retail Vending Machine Locations",
    "address": "18405 Brookhurst St,Fountain Valley, CA",
    "lat": 33.6954314,
    "lng": -117.9559283
  },
  {
    "state": "California Pokémon Automated Retail Vending Machine Locations",
    "address": "2010 Freedom Blvd,Freedom, CA",
    "lat": 36.9400086,
    "lng": -121.7755903
  },
  {
    "state": "California Pokémon Automated Retail Vending Machine Locations",
    "address": "39100 Argonaut Way,Fremont, CA",
    "lat": 37.545943,
    "lng": -121.9886745
  },
  {
    "state": "California Pokémon Automated Retail Vending Machine Locations",
    "address": "3902 Washington Blvd,Fremont, CA",
    "lat": 37.5315046,
    "lng": -121.9571762
  },
  {
    "state": "California Pokémon Automated Retail Vending Machine Locations",
    "address": "1930 N Placentia Ave,Fullerton, CA",
    "lat": 33.8900282,
    "lng": -117.8723507
  },
  {
    "state": "California Pokémon Automated Retail Vending Machine Locations",
    "address": "1121 N Harbor Blvd,Fullerton, CA",
    "lat": 33.8814007,
    "lng": -117.9252663
  },
  {
    "state": "California Pokémon Automated Retail Vending Machine Locations",
    "address": "11861 Valley View St,Garden Grove, CA",
    "lat": 33.7901681,
    "lng": -118.0290381
  },
  {
    "state": "California Pokémon Automated Retail Vending Machine Locations",
    "address": "1260 W Redondo Beach Blvd,Gardena, CA",
    "lat": 33.8909176,
    "lng": -118.2978182
  },
  {
    "state": "California Pokémon Automated Retail Vending Machine Locations",
    "address": "1735 Artesia Blvd,Gardena, CA",
    "lat": 33.8742371,
    "lng": -118.3080208
  },
  {
    "state": "California Pokémon Automated Retail Vending Machine Locations",
    "address": "1299 Artesia Blvd,Gardena, CA",
    "lat": 33.8736662,
    "lng": -118.2948679
  },
  {
    "state": "California Pokémon Automated Retail Vending Machine Locations",
    "address": "561 N Glendale Ave,Glendale, CA",
    "lat": 34.1549746,
    "lng": -118.2447133
  },
  {
    "state": "California Pokémon Automated Retail Vending Machine Locations",
    "address": "311 W Los Feliz Rd,Glendale, CA",
    "lat": 34.1294353,
    "lng": -118.258601
  },
  {
    "state": "California Pokémon Automated Retail Vending Machine Locations",
    "address": "133 W Rte 66,Glendora, CA",
    "lat": 34.130078,
    "lng": -117.8650115
  },
  {
    "state": "California Pokémon Automated Retail Vending Machine Locations",
    "address": "163 S Turnpike Rd,Goleta, CA",
    "lat": 34.437709,
    "lng": -119.7904626
  },
  {
    "state": "California Pokémon Automated Retail Vending Machine Locations",
    "address": "16830 San Fernando Mission Blvd,Granada Hills, CA",
    "lat": 34.2709792,
    "lng": -118.4988955
  },
  {
    "state": "California Pokémon Automated Retail Vending Machine Locations",
    "address": "2122 S Hacienda Blvd,Hacienda Heights, CA",
    "lat": 33.9949708,
    "lng": -117.9672764
  },
  {
    "state": "California Pokémon Automated Retail Vending Machine Locations",
    "address": "70 Cabrillo Hwy,Half Moon Bay, CA",
    "lat": 37.469211,
    "lng": -122.4361958
  },
  {
    "state": "California Pokémon Automated Retail Vending Machine Locations",
    "address": "14500 Ocean Gate Ave,Hawthorne, CA",
    "lat": 33.8993596,
    "lng": -118.3664971
  },
  {
    "state": "California Pokémon Automated Retail Vending Machine Locations",
    "address": "27300 Hesperian Blvd,Hayward, CA",
    "lat": 37.6324304,
    "lng": -122.0962703
  },
  {
    "state": "California Pokémon Automated Retail Vending Machine Locations",
    "address": "22280 Foothill Blvd,Hayward, CA",
    "lat": 37.6797966,
    "lng": -122.0834782
  },
  {
    "state": "California Pokémon Automated Retail Vending Machine Locations",
    "address": "231 W Jackson St,Hayward, CA",
    "lat": 37.6527118,
    "lng": -122.0914671
  },
  {
    "state": "California Pokémon Automated Retail Vending Machine Locations",
    "address": "1115 Vine St,Healdsburg, CA",
    "lat": 38.6083983,
    "lng": -122.8729813
  },
  {
    "state": "California Pokémon Automated Retail Vending Machine Locations",
    "address": "4602 W Florida Ave,Hemet, CA",
    "lat": 33.7454278,
    "lng": -117.0208734
  },
  {
    "state": "California Pokémon Automated Retail Vending Machine Locations",
    "address": "4080 San Pablo Ave,Hercules, CA",
    "lat": 38.0142912,
    "lng": -122.2719371
  },
  {
    "state": "California Pokémon Automated Retail Vending Machine Locations",
    "address": "715 Pier Ave,Hermosa Beach, CA",
    "lat": 33.8658822,
    "lng": -118.3947675
  },
  {
    "state": "California Pokémon Automated Retail Vending Machine Locations",
    "address": "5922 Edinger Ave,Huntington Beach, CA",
    "lat": 33.7289017,
    "lng": -118.026751
  },
  {
    "state": "California Pokémon Automated Retail Vending Machine Locations",
    "address": "7201 Yorktown Ave,Huntington Beach, CA",
    "lat": 33.6808855,
    "lng": -118.0027806
  },
  {
    "state": "California Pokémon Automated Retail Vending Machine Locations",
    "address": "19640 Beach Blvd,Huntington Beach, CA",
    "lat": 33.6772837,
    "lng": -117.986951
  },
  {
    "state": "California Pokémon Automated Retail Vending Machine Locations",
    "address": "6920 Santa Fe Ave,Huntington Park, CA",
    "lat": 33.9756675,
    "lng": -118.2296367
  },
  {
    "state": "California Pokémon Automated Retail Vending Machine Locations",
    "address": "3200 W Century Blvd,Inglewood, CA",
    "lat": 33.9447728,
    "lng": -118.3285929
  },
  {
    "state": "California Pokémon Automated Retail Vending Machine Locations",
    "address": "500 E Manchester Blvd,Inglewood, CA",
    "lat": 33.9602624,
    "lng": -118.3491837
  },
  {
    "state": "California Pokémon Automated Retail Vending Machine Locations",
    "address": "14201 Jeffrey Rd,Irvine, CA",
    "lat": 33.6952937,
    "lng": -117.765374
  },
  {
    "state": "California Pokémon Automated Retail Vending Machine Locations",
    "address": "4541 Campus Dr,Irvine, CA",
    "lat": 33.6501469,
    "lng": -117.831352
  },
  {
    "state": "California Pokémon Automated Retail Vending Machine Locations",
    "address": "6601 Quail Hill Pkwy,Irvine, CA",
    "lat": 33.6558064,
    "lng": -117.7782915
  },
  {
    "state": "California Pokémon Automated Retail Vending Machine Locations",
    "address": "12110 Industry Blvd,Jackson, CA",
    "lat": 38.3682781,
    "lng": -120.7998186
  },
  {
    "state": "California Pokémon Automated Retail Vending Machine Locations",
    "address": "3233 Foothill Blvd,La Crescenta-Montrose, CA",
    "lat": 34.2311403,
    "lng": -118.2501954
  },
  {
    "state": "California Pokémon Automated Retail Vending Machine Locations",
    "address": "2675 Foothill Blvd,La Crescenta-Montrose, CA",
    "lat": 34.2235029,
    "lng": -118.2366875
  },
  {
    "state": "California Pokémon Automated Retail Vending Machine Locations",
    "address": "1800 W Whittier Blvd,La Habra, CA",
    "lat": 33.9385325,
    "lng": -117.9663613
  },
  {
    "state": "California Pokémon Automated Retail Vending Machine Locations",
    "address": "7544 Girard Ave,La Jolla, CA",
    "lat": 32.8416872,
    "lng": -117.273582
  },
  {
    "state": "California Pokémon Automated Retail Vending Machine Locations",
    "address": "8657 Villa La Jolla Dr,La Jolla, CA",
    "lat": 32.8671048,
    "lng": -117.2319686
  },
  {
    "state": "California Pokémon Automated Retail Vending Machine Locations",
    "address": "8920 Fletcher Pkwy,La Mesa, CA",
    "lat": 32.7862652,
    "lng": -117.005438
  },
  {
    "state": "California Pokémon Automated Retail Vending Machine Locations",
    "address": "15200 Rosecrans Ave,La Mirada, CA",
    "lat": 33.8970954,
    "lng": -118.0075432
  },
  {
    "state": "California Pokémon Automated Retail Vending Machine Locations",
    "address": "1821 N Hacienda Blvd,La Puente, CA",
    "lat": 34.05215940000001,
    "lng": -117.9444879
  },
  {
    "state": "California Pokémon Automated Retail Vending Machine Locations",
    "address": "1600 Foothill Blvd,La Verne, CA",
    "lat": 34.1146123,
    "lng": -117.7731454
  },
  {
    "state": "California Pokémon Automated Retail Vending Machine Locations",
    "address": "27702 Crown Valley Pkwy B,Ladera Ranch, CA",
    "lat": 33.56359,
    "lng": -117.64619
  },
  {
    "state": "California Pokémon Automated Retail Vending Machine Locations",
    "address": "30241 Golden Lantern,Laguna Niguel, CA",
    "lat": 33.523915,
    "lng": -117.6879421
  },
  {
    "state": "California Pokémon Automated Retail Vending Machine Locations",
    "address": "30901 Riverside Dr,Lake Elsinore, CA",
    "lat": 33.6860921,
    "lng": -117.3669546
  },
  {
    "state": "California Pokémon Automated Retail Vending Machine Locations",
    "address": "4226 Woodruff Ave,Lakewood, CA",
    "lat": 33.8354914,
    "lng": -118.1152568
  },
  {
    "state": "California Pokémon Automated Retail Vending Machine Locations",
    "address": "5500 Woodruff Ave,Lakewood, CA",
    "lat": 33.8569136,
    "lng": -118.1153768
  },
  {
    "state": "California Pokémon Automated Retail Vending Machine Locations",
    "address": "3400 E South St,Lakewood, CA",
    "lat": 33.8588401,
    "lng": -118.152226
  },
  {
    "state": "California Pokémon Automated Retail Vending Machine Locations",
    "address": "1554 First St,Livermore, CA",
    "lat": 37.68043580000001,
    "lng": -121.777421
  },
  {
    "state": "California Pokémon Automated Retail Vending Machine Locations",
    "address": "4495 First St,Livermore, CA",
    "lat": 37.69597,
    "lng": -121.7430557
  },
  {
    "state": "California Pokémon Automated Retail Vending Machine Locations",
    "address": "1800-2000 Ximeno Ave,Long Beach, CA",
    "lat": 33.79080709999999,
    "lng": -118.1378691
  },
  {
    "state": "California Pokémon Automated Retail Vending Machine Locations",
    "address": "3210 E Anaheim St,Long Beach, CA",
    "lat": 33.78116079999999,
    "lng": -118.1541422
  },
  {
    "state": "California Pokémon Automated Retail Vending Machine Locations",
    "address": "101 E Willow St,Long Beach, CA",
    "lat": 33.8054743,
    "lng": -118.1921677
  },
  {
    "state": "California Pokémon Automated Retail Vending Machine Locations",
    "address": "160 1st St,Los Altos, CA",
    "lat": 37.3790084,
    "lng": -122.1189798
  },
  {
    "state": "California Pokémon Automated Retail Vending Machine Locations",
    "address": "5100 N Figueroa St,Los Angeles, CA",
    "lat": 34.1052916,
    "lng": -118.2001191
  },
  {
    "state": "California Pokémon Automated Retail Vending Machine Locations",
    "address": "3461 W 3rd St,Los Angeles, CA",
    "lat": 34.0699966,
    "lng": -118.2909401
  },
  {
    "state": "California Pokémon Automated Retail Vending Machine Locations",
    "address": "11507 S Western Ave,Los Angeles, CA",
    "lat": 33.9293814,
    "lng": -118.3105782
  },
  {
    "state": "California Pokémon Automated Retail Vending Machine Locations",
    "address": "11840 Wilmington Ave,Los Angeles, CA",
    "lat": 33.925936,
    "lng": -118.237366
  },
  {
    "state": "California Pokémon Automated Retail Vending Machine Locations",
    "address": "18318 Vanowen St,Los Angeles, CA",
    "lat": 34.1925163,
    "lng": -118.5325566
  },
  {
    "state": "California Pokémon Automated Retail Vending Machine Locations",
    "address": "1820 W Slauson Ave,Los Angeles, CA",
    "lat": 33.9876022,
    "lng": -118.3109435
  },
  {
    "state": "California Pokémon Automated Retail Vending Machine Locations",
    "address": "2750 1st St,Los Angeles, CA",
    "lat": 34.0407421,
    "lng": -118.2057103
  },
  {
    "state": "California Pokémon Automated Retail Vending Machine Locations",
    "address": "4520 W Sunset Blvd,Los Angeles, CA",
    "lat": 34.0969729,
    "lng": -118.2880171
  },
  {
    "state": "California Pokémon Automated Retail Vending Machine Locations",
    "address": "6534 Platt Ave,Los Angeles, CA",
    "lat": 34.1895279,
    "lng": -118.6413607
  },
  {
    "state": "California Pokémon Automated Retail Vending Machine Locations",
    "address": "7789 Foothill Blvd,Los Angeles, CA",
    "lat": 34.2591656,
    "lng": -118.3011918
  },
  {
    "state": "California Pokémon Automated Retail Vending Machine Locations",
    "address": "7311 N Figueroa St,Los Angeles, CA",
    "lat": 34.1360978,
    "lng": -118.1895172
  },
  {
    "state": "California Pokémon Automated Retail Vending Machine Locations",
    "address": "12689 Glenoaks Blvd,Los Angeles, CA",
    "lat": 34.2997045,
    "lng": -118.4419571
  },
  {
    "state": "California Pokémon Automated Retail Vending Machine Locations",
    "address": "4760 W Pico Blvd,Los Angeles, CA",
    "lat": 34.047716,
    "lng": -118.3394374
  },
  {
    "state": "California Pokémon Automated Retail Vending Machine Locations",
    "address": "470 N Santa Cruz Ave,Los Gatos, CA",
    "lat": 37.2314105,
    "lng": -121.9790366
  },
  {
    "state": "California Pokémon Automated Retail Vending Machine Locations",
    "address": "15549 Union Ave,Los Gatos, CA",
    "lat": 37.2424233,
    "lng": -121.932645
  },
  {
    "state": "California Pokémon Automated Retail Vending Machine Locations",
    "address": "1187 S Main St,Manteca, CA",
    "lat": 37.7867336,
    "lng": -121.2188396
  },
  {
    "state": "California Pokémon Automated Retail Vending Machine Locations",
    "address": "4365 Glencoe Ave,Marina del Rey, CA",
    "lat": 33.9852041,
    "lng": -118.4397951
  },
  {
    "state": "California Pokémon Automated Retail Vending Machine Locations",
    "address": "6688 Alhambra Ave,Martinez, CA",
    "lat": 37.9579116,
    "lng": -122.0939524
  },
  {
    "state": "California Pokémon Automated Retail Vending Machine Locations",
    "address": "525 El Camino Real,Menlo Park, CA",
    "lat": 37.4505164,
    "lng": -122.1790396
  },
  {
    "state": "California Pokémon Automated Retail Vending Machine Locations",
    "address": "525 El Camino Real,Millbrae, CA",
    "lat": 37.6033834,
    "lng": -122.3942501
  },
  {
    "state": "California Pokémon Automated Retail Vending Machine Locations",
    "address": "555 E Calaveras Blvd,Milpitas, CA",
    "lat": 37.43506319999999,
    "lng": -121.8980017
  },
  {
    "state": "California Pokémon Automated Retail Vending Machine Locations",
    "address": "10321 Sepulveda Blvd,Mission Hills, CA",
    "lat": 34.2583055,
    "lng": -118.4682521
  },
  {
    "state": "California Pokémon Automated Retail Vending Machine Locations",
    "address": "23072 Alicia Pkwy,Mission Viejo, CA",
    "lat": 33.6275613,
    "lng": -117.6360557
  },
  {
    "state": "California Pokémon Automated Retail Vending Machine Locations",
    "address": "26022 Marguerite Pkwy,Mission Viejo, CA",
    "lat": 33.5860085,
    "lng": -117.6575103
  },
  {
    "state": "California Pokémon Automated Retail Vending Machine Locations",
    "address": "130 W Foothill Blvd,Monrovia, CA",
    "lat": 34.1499857,
    "lng": -118.002033
  },
  {
    "state": "California Pokémon Automated Retail Vending Machine Locations",
    "address": "2469 Via Campo,Montebello, CA",
    "lat": 34.0311748,
    "lng": -118.1226002
  },
  {
    "state": "California Pokémon Automated Retail Vending Machine Locations",
    "address": "4241 Tierra Rejada Rd,Moorpark, CA",
    "lat": 34.2675833,
    "lng": -118.8992722
  },
  {
    "state": "California Pokémon Automated Retail Vending Machine Locations",
    "address": "1355 Moraga Way,Moraga, CA",
    "lat": 37.8363099,
    "lng": -122.1283857
  },
  {
    "state": "California Pokémon Automated Retail Vending Machine Locations",
    "address": "12880 Day St,Moreno Valley, CA",
    "lat": 33.9337369,
    "lng": -117.2747438
  },
  {
    "state": "California Pokémon Automated Retail Vending Machine Locations",
    "address": "24440 Alessandro Blvd,Moreno Valley, CA",
    "lat": 33.9196003,
    "lng": -117.2360115
  },
  {
    "state": "California Pokémon Automated Retail Vending Machine Locations",
    "address": "235 Tennant Station,Morgan Hill, CA",
    "lat": 37.112799,
    "lng": -121.6391836
  },
  {
    "state": "California Pokémon Automated Retail Vending Machine Locations",
    "address": "840 E Dunne Ave,Morgan Hill, CA",
    "lat": 37.1288224,
    "lng": -121.6365792
  },
  {
    "state": "California Pokémon Automated Retail Vending Machine Locations",
    "address": "645 San Antonio Rd,Mountain View, CA",
    "lat": 37.4018244,
    "lng": -122.112164
  },
  {
    "state": "California Pokémon Automated Retail Vending Machine Locations",
    "address": "1750 Miramonte Ave,Mountain View, CA",
    "lat": 37.37231360000001,
    "lng": -122.0884717
  },
  {
    "state": "California Pokémon Automated Retail Vending Machine Locations",
    "address": "570 N Shoreline Blvd,Mountain View, CA",
    "lat": 37.4029895,
    "lng": -122.0794005
  },
  {
    "state": "California Pokémon Automated Retail Vending Machine Locations",
    "address": "39140 Winchester Rd,Murrieta, CA",
    "lat": 33.5507785,
    "lng": -117.1389757
  },
  {
    "state": "California Pokémon Automated Retail Vending Machine Locations",
    "address": "41000 California Oaks Rd,Murrieta, CA",
    "lat": 33.5670571,
    "lng": -117.2036471
  },
  {
    "state": "California Pokémon Automated Retail Vending Machine Locations",
    "address": "24160 Lyons Ave,Newhall, CA",
    "lat": 34.3774741,
    "lng": -118.5576496
  },
  {
    "state": "California Pokémon Automated Retail Vending Machine Locations",
    "address": "21181 Newport Coast Dr,Newport Beach, CA",
    "lat": 33.6067784,
    "lng": -117.8278394
  },
  {
    "state": "California Pokémon Automated Retail Vending Machine Locations",
    "address": "16208 Parthenia St,North Hills, CA",
    "lat": 34.2280585,
    "lng": -118.4855589
  },
  {
    "state": "California Pokémon Automated Retail Vending Machine Locations",
    "address": "8035 Webb Ave,North Hollywood, CA",
    "lat": 34.216295,
    "lng": -118.389746
  },
  {
    "state": "California Pokémon Automated Retail Vending Machine Locations",
    "address": "5720 Nave Dr,Novato, CA",
    "lat": 38.0623602,
    "lng": -122.5320558
  },
  {
    "state": "California Pokémon Automated Retail Vending Machine Locations",
    "address": "3000 E 9th St,Oakland, CA",
    "lat": 37.7757276,
    "lng": -122.230647
  },
  {
    "state": "California Pokémon Automated Retail Vending Machine Locations",
    "address": "5100 Broadway,Oakland, CA",
    "lat": 37.8344212,
    "lng": -122.2501453
  },
  {
    "state": "California Pokémon Automated Retail Vending Machine Locations",
    "address": "4100 Redwood Rd,Oakland, CA",
    "lat": 37.7983581,
    "lng": -122.1827645
  },
  {
    "state": "California Pokémon Automated Retail Vending Machine Locations",
    "address": "6310 College Ave,Oakland, CA",
    "lat": 37.8507561,
    "lng": -122.2520065
  },
  {
    "state": "California Pokémon Automated Retail Vending Machine Locations",
    "address": "3450 Marron Rd,Oceanside, CA",
    "lat": 33.1795563,
    "lng": -117.2964516
  },
  {
    "state": "California Pokémon Automated Retail Vending Machine Locations",
    "address": "4150 Oceanside Blvd,Oceanside, CA",
    "lat": 33.2077157,
    "lng": -117.2872673
  },
  {
    "state": "California Pokémon Automated Retail Vending Machine Locations",
    "address": "845 College Blvd,Oceanside, CA",
    "lat": 33.2411185,
    "lng": -117.2946649
  },
  {
    "state": "California Pokémon Automated Retail Vending Machine Locations",
    "address": "2245 S El Camino Real,Oceanside, CA",
    "lat": 33.1857067,
    "lng": -117.3300164
  },
  {
    "state": "California Pokémon Automated Retail Vending Machine Locations",
    "address": "101 Old Grove Rd,Oceanside, CA",
    "lat": 33.2298664,
    "lng": -117.3074821
  },
  {
    "state": "California Pokémon Automated Retail Vending Machine Locations",
    "address": "2246 S Euclid Ave,Ontario, CA",
    "lat": 34.0326111,
    "lng": -117.6528351
  },
  {
    "state": "California Pokémon Automated Retail Vending Machine Locations",
    "address": "2684 N Tustin St,Orange, CA",
    "lat": 33.8334022,
    "lng": -117.8373269
  },
  {
    "state": "California Pokémon Automated Retail Vending Machine Locations",
    "address": "8701 Greenback Ln,Orangevale, CA",
    "lat": 38.6798727,
    "lng": -121.233833
  },
  {
    "state": "California Pokémon Automated Retail Vending Machine Locations",
    "address": "2101 N Rose Ave,Oxnard, CA",
    "lat": 34.2218328,
    "lng": -119.1617781
  },
  {
    "state": "California Pokémon Automated Retail Vending Machine Locations",
    "address": "1291 S Victoria Ave,Oxnard, CA",
    "lat": 34.1883692,
    "lng": -119.2220894
  },
  {
    "state": "California Pokémon Automated Retail Vending Machine Locations",
    "address": "1380 Linda Mar Blvd,Pacifica, CA",
    "lat": 37.5944128,
    "lng": -122.5030617
  },
  {
    "state": "California Pokémon Automated Retail Vending Machine Locations",
    "address": "709 Hickey Blvd,Pacifica, CA",
    "lat": 37.6610102,
    "lng": -122.477594
  },
  {
    "state": "California Pokémon Automated Retail Vending Machine Locations",
    "address": "2355 E Colorado Blvd,Pasadena, CA",
    "lat": 34.1477911,
    "lng": -118.1022092
  },
  {
    "state": "California Pokémon Automated Retail Vending Machine Locations",
    "address": "3150 Case Rd,Perris, CA",
    "lat": 33.7465682,
    "lng": -117.1903718
  },
  {
    "state": "California Pokémon Automated Retail Vending Machine Locations",
    "address": "701 Sonoma Mountain Pkwy,Petaluma, CA",
    "lat": 38.2695254,
    "lng": -122.6394021
  },
  {
    "state": "California Pokémon Automated Retail Vending Machine Locations",
    "address": "389 S McDowell Blvd,Petaluma, CA",
    "lat": 38.2491273,
    "lng": -122.6219167
  },
  {
    "state": "California Pokémon Automated Retail Vending Machine Locations",
    "address": "1530 Fitzgerald Dr,Pinole, CA",
    "lat": 37.9905513,
    "lng": -122.3025023
  },
  {
    "state": "California Pokémon Automated Retail Vending Machine Locations",
    "address": "3955 Missouri Flat Rd,Placerville, CA",
    "lat": 38.7136407,
    "lng": -120.8394861
  },
  {
    "state": "California Pokémon Automated Retail Vending Machine Locations",
    "address": "600 Patterson Blvd,Pleasant Hill, CA",
    "lat": 37.934176,
    "lng": -122.0721152
  },
  {
    "state": "California Pokémon Automated Retail Vending Machine Locations",
    "address": "1978 Contra Costa Blvd,Pleasant Hill, CA",
    "lat": 37.9484116,
    "lng": -122.0582206
  },
  {
    "state": "California Pokémon Automated Retail Vending Machine Locations",
    "address": "707 Contra Costa Blvd,Pleasant Hill, CA",
    "lat": 37.9712593,
    "lng": -122.0615502
  },
  {
    "state": "California Pokémon Automated Retail Vending Machine Locations",
    "address": "1701 Santa Rita Rd,Pleasanton, CA",
    "lat": 37.6749177,
    "lng": -121.8745838
  },
  {
    "state": "California Pokémon Automated Retail Vending Machine Locations",
    "address": "90 Rio Rancho Rd,Pomona, CA",
    "lat": 34.0263046,
    "lng": -117.7615368
  },
  {
    "state": "California Pokémon Automated Retail Vending Machine Locations",
    "address": "10635 Folsom Blvd,Rancho Cordova, CA",
    "lat": 38.595276,
    "lng": -121.2931511
  },
  {
    "state": "California Pokémon Automated Retail Vending Machine Locations",
    "address": "11358 Kenyon Way,Rancho Cucamonga, CA",
    "lat": 34.1355951,
    "lng": -117.5571974
  },
  {
    "state": "California Pokémon Automated Retail Vending Machine Locations",
    "address": "450 E Cypress Ave,Redlands, CA",
    "lat": 34.0484751,
    "lng": -117.1713459
  },
  {
    "state": "California Pokémon Automated Retail Vending Machine Locations",
    "address": "4001 Inglewood Ave,Redondo Beach, CA",
    "lat": 33.8922077,
    "lng": -118.3621856
  },
  {
    "state": "California Pokémon Automated Retail Vending Machine Locations",
    "address": "2975 Van Buren Boulevard,Riverside, CA",
    "lat": 33.9099599,
    "lng": -117.4363569
  },
  {
    "state": "California Pokémon Automated Retail Vending Machine Locations",
    "address": "4250 Van Buren Boulevard,Riverside, CA",
    "lat": 33.9275783,
    "lng": -117.4534146
  },
  {
    "state": "California Pokémon Automated Retail Vending Machine Locations",
    "address": "3520 Riverside Plaza Dr,Riverside, CA",
    "lat": 33.9548985,
    "lng": -117.38951
  },
  {
    "state": "California Pokémon Automated Retail Vending Machine Locations",
    "address": "2220 Sunset Blvd,Rocklin, CA",
    "lat": 38.8029192,
    "lng": -121.2742918
  },
  {
    "state": "California Pokémon Automated Retail Vending Machine Locations",
    "address": "6340 Commerce Blvd,Rohnert Park, CA",
    "lat": 38.3475652,
    "lng": -122.7084312
  },
  {
    "state": "California Pokémon Automated Retail Vending Machine Locations",
    "address": "7 Peninsula Center,Rolling Hills Estates, CA",
    "lat": 33.7754149,
    "lng": -118.3778782
  },
  {
    "state": "California Pokémon Automated Retail Vending Machine Locations",
    "address": "8640 Sierra College Blvd,Roseville, CA",
    "lat": 38.7419037,
    "lng": -121.2284747
  },
  {
    "state": "California Pokémon Automated Retail Vending Machine Locations",
    "address": "1080 Pleasant Grove Blvd,Roseville, CA",
    "lat": 38.7768414,
    "lng": -121.2914698
  },
  {
    "state": "California Pokémon Automated Retail Vending Machine Locations",
    "address": "989 Sunrise Ave,Roseville, CA",
    "lat": 38.7310727,
    "lng": -121.2710414
  },
  {
    "state": "California Pokémon Automated Retail Vending Machine Locations",
    "address": "9045 Woodcreek Oaks Blvd,Roseville, CA",
    "lat": 38.7945581,
    "lng": -121.3304616
  },
  {
    "state": "California Pokémon Automated Retail Vending Machine Locations",
    "address": "1814 19th St,Sacramento, CA",
    "lat": 38.5679012,
    "lng": -121.4862313
  },
  {
    "state": "California Pokémon Automated Retail Vending Machine Locations",
    "address": "1025 Alhambra Blvd,Sacramento, CA",
    "lat": 38.5716151,
    "lng": -121.4649276
  },
  {
    "state": "California Pokémon Automated Retail Vending Machine Locations",
    "address": "3320 Arden Wy,Sacramento, CA",
    "lat": 38.594476,
    "lng": -121.3868593
  },
  {
    "state": "California Pokémon Automated Retail Vending Machine Locations",
    "address": "8377 Elk Grove Florin Rd,Sacramento, CA",
    "lat": 38.4534632,
    "lng": -121.3700657
  },
  {
    "state": "California Pokémon Automated Retail Vending Machine Locations",
    "address": "5345 Elkhorn Blvd,Sacramento, CA",
    "lat": 38.6864264,
    "lng": -121.33942
  },
  {
    "state": "California Pokémon Automated Retail Vending Machine Locations",
    "address": "2300 Watt Ave,Sacramento, CA",
    "lat": 38.6072498,
    "lng": -121.3807853
  },
  {
    "state": "California Pokémon Automated Retail Vending Machine Locations",
    "address": "2851 Del Paso Rd,Sacramento, CA",
    "lat": 38.6574366,
    "lng": -121.5247113
  },
  {
    "state": "California Pokémon Automated Retail Vending Machine Locations",
    "address": "838 Sir Francis Drake Blvd,San Anselmo, CA",
    "lat": 37.9807149,
    "lng": -122.5642294
  },
  {
    "state": "California Pokémon Automated Retail Vending Machine Locations",
    "address": "804 Avenida Pico,San Clemente, CA",
    "lat": 33.4426992,
    "lng": -117.6138706
  },
  {
    "state": "California Pokémon Automated Retail Vending Machine Locations",
    "address": "989 Avenida Pico,San Clemente, CA",
    "lat": 33.456798,
    "lng": -117.6033259
  },
  {
    "state": "California Pokémon Automated Retail Vending Machine Locations",
    "address": "620 Dennery Rd,San Diego, CA",
    "lat": 32.5831174,
    "lng": -117.0347214
  },
  {
    "state": "California Pokémon Automated Retail Vending Machine Locations",
    "address": "11986 Bernardo Plaza Dr,San Diego, CA",
    "lat": 33.02108860000001,
    "lng": -117.0722025
  },
  {
    "state": "California Pokémon Automated Retail Vending Machine Locations",
    "address": "6155 El Cajon Blvd,San Diego, CA",
    "lat": 32.7610937,
    "lng": -117.0650207
  },
  {
    "state": "California Pokémon Automated Retail Vending Machine Locations",
    "address": "8310 Mira Mesa Blvd,San Diego, CA",
    "lat": 32.9152387,
    "lng": -117.144766
  },
  {
    "state": "California Pokémon Automated Retail Vending Machine Locations",
    "address": "515 Washington St,San Diego, CA",
    "lat": 32.74972899999999,
    "lng": -117.1600007
  },
  {
    "state": "California Pokémon Automated Retail Vending Machine Locations",
    "address": "12475 Rancho Bernardo Rd,San Diego, CA",
    "lat": 33.0176045,
    "lng": -117.0616634
  },
  {
    "state": "California Pokémon Automated Retail Vending Machine Locations",
    "address": "8650 Lake Murray Blvd,San Diego, CA",
    "lat": 32.8018341,
    "lng": -117.0128343
  },
  {
    "state": "California Pokémon Automated Retail Vending Machine Locations",
    "address": "4145 30th St,San Diego, CA",
    "lat": 32.7531326,
    "lng": -117.1300036
  },
  {
    "state": "California Pokémon Automated Retail Vending Machine Locations",
    "address": "4725 Clairemont Dr,San Diego, CA",
    "lat": 32.8301997,
    "lng": -117.2049118
  },
  {
    "state": "California Pokémon Automated Retail Vending Machine Locations",
    "address": "3550 Murphy Canyon Rd,San Diego, CA",
    "lat": 32.8073112,
    "lng": -117.1166399
  },
  {
    "state": "California Pokémon Automated Retail Vending Machine Locations",
    "address": "10675 Scripps Poway Pkwy,San Diego, CA",
    "lat": 32.9355075,
    "lng": -117.0985163
  },
  {
    "state": "California Pokémon Automated Retail Vending Machine Locations",
    "address": "10016 Scripps Ranch Blvd,San Diego, CA",
    "lat": 32.9030914,
    "lng": -117.100461
  },
  {
    "state": "California Pokémon Automated Retail Vending Machine Locations",
    "address": "2495 Truxtun Rd Ste 28,San Diego, CA",
    "lat": 32.7372237,
    "lng": -117.2157268
  },
  {
    "state": "California Pokémon Automated Retail Vending Machine Locations",
    "address": "7895 Highlands Village Pl,San Diego, CA",
    "lat": 32.9609224,
    "lng": -117.1535891
  },
  {
    "state": "California Pokémon Automated Retail Vending Machine Locations",
    "address": "220 E Bonita Ave,San Dimas, CA",
    "lat": 34.1059358,
    "lng": -117.8038216
  },
  {
    "state": "California Pokémon Automated Retail Vending Machine Locations",
    "address": "735 7th Ave,San Francisco, CA",
    "lat": 37.7745526,
    "lng": -122.4653886
  },
  {
    "state": "California Pokémon Automated Retail Vending Machine Locations",
    "address": "5290 Diamond Heights Blvd,San Francisco, CA",
    "lat": 37.743744,
    "lng": -122.439175
  },
  {
    "state": "California Pokémon Automated Retail Vending Machine Locations",
    "address": "3457 McKee Rd,San Jose, CA",
    "lat": 37.3809577,
    "lng": -121.8293336
  },
  {
    "state": "California Pokémon Automated Retail Vending Machine Locations",
    "address": "5760 Cottle Rd,San Jose, CA",
    "lat": 37.2464924,
    "lng": -121.802963
  },
  {
    "state": "California Pokémon Automated Retail Vending Machine Locations",
    "address": "1663 Branham Ln,San Jose, CA",
    "lat": 37.2530451,
    "lng": -121.9082861
  },
  {
    "state": "California Pokémon Automated Retail Vending Machine Locations",
    "address": "4950 Almaden Expy,San Jose, CA",
    "lat": 37.2599673,
    "lng": -121.8744059
  },
  {
    "state": "California Pokémon Automated Retail Vending Machine Locations",
    "address": "179 Branham Ln,San Jose, CA",
    "lat": 37.2674105,
    "lng": -121.8338916
  },
  {
    "state": "California Pokémon Automated Retail Vending Machine Locations",
    "address": "1530 Hamilton Ave,San Jose, CA",
    "lat": 37.293773,
    "lng": -121.970898
  },
  {
    "state": "California Pokémon Automated Retail Vending Machine Locations",
    "address": "5146 Stevens Creek Blvd,San Jose, CA",
    "lat": 37.3221369,
    "lng": -121.9951121
  },
  {
    "state": "California Pokémon Automated Retail Vending Machine Locations",
    "address": "6150 Bollinger Rd,San Jose, CA",
    "lat": 37.3096604,
    "lng": -122.0118184
  },
  {
    "state": "California Pokémon Automated Retail Vending Machine Locations",
    "address": "1539 Parkmoor Ave,San Jose, CA",
    "lat": 37.3176119,
    "lng": -121.9163012
  },
  {
    "state": "California Pokémon Automated Retail Vending Machine Locations",
    "address": "699 Lewelling Blvd,San Leandro, CA",
    "lat": 37.6884124,
    "lng": -122.1386337
  },
  {
    "state": "California Pokémon Automated Retail Vending Machine Locations",
    "address": "555 Grand Ave,San Marcos, CA",
    "lat": 33.1350603,
    "lng": -117.1762885
  },
  {
    "state": "California Pokémon Automated Retail Vending Machine Locations",
    "address": "151 Woodland Pkwy,San Marcos, CA",
    "lat": 33.140048,
    "lng": -117.1384242
  },
  {
    "state": "California Pokémon Automated Retail Vending Machine Locations",
    "address": "1929 W San Marcos Blvd,San Marcos, CA",
    "lat": 33.1319149,
    "lng": -117.2109589
  },
  {
    "state": "California Pokémon Automated Retail Vending Machine Locations",
    "address": "1571 San Elijo Rd,San Marcos, CA",
    "lat": 33.0970081,
    "lng": -117.2002937
  },
  {
    "state": "California Pokémon Automated Retail Vending Machine Locations",
    "address": "306 S Twin Oaks Valley Rd,San Marcos, CA",
    "lat": 33.1306541,
    "lng": -117.1670069
  },
  {
    "state": "California Pokémon Automated Retail Vending Machine Locations",
    "address": "100 De Anza Blvd,San Mateo, CA",
    "lat": 37.5212513,
    "lng": -122.3373225
  },
  {
    "state": "California Pokémon Automated Retail Vending Machine Locations",
    "address": "1655 S El Camino Real,San Mateo, CA",
    "lat": 37.5532202,
    "lng": -122.3136748
  },
  {
    "state": "California Pokémon Automated Retail Vending Machine Locations",
    "address": "28090 S Western Ave,San Pedro, CA",
    "lat": 33.7648317,
    "lng": -118.3098874
  },
  {
    "state": "California Pokémon Automated Retail Vending Machine Locations",
    "address": "11060 Bollinger Canyon Rd,San Ramon, CA",
    "lat": 37.7741693,
    "lng": -121.9219012
  },
  {
    "state": "California Pokémon Automated Retail Vending Machine Locations",
    "address": "2140 S Bristol St,Santa Ana, CA",
    "lat": 33.7175898,
    "lng": -117.8860846
  },
  {
    "state": "California Pokémon Automated Retail Vending Machine Locations",
    "address": "3650 S Bristol St,Santa Ana, CA",
    "lat": 33.6981988,
    "lng": -117.8870126
  },
  {
    "state": "California Pokémon Automated Retail Vending Machine Locations",
    "address": "27631 Bouquet Canyon Rd,Santa Clarita, CA",
    "lat": 34.444093,
    "lng": -118.5121236
  },
  {
    "state": "California Pokémon Automated Retail Vending Machine Locations",
    "address": "19200 Soledad Canyon Rd,Santa Clarita, CA",
    "lat": 34.4140883,
    "lng": -118.470885
  },
  {
    "state": "California Pokémon Automated Retail Vending Machine Locations",
    "address": "2203 Mission St,Santa Cruz, CA",
    "lat": 36.9613584,
    "lng": -122.0452122
  },
  {
    "state": "California Pokémon Automated Retail Vending Machine Locations",
    "address": "576 W Main St,Santa Paula, CA",
    "lat": 34.3444267,
    "lng": -119.0813557
  },
  {
    "state": "California Pokémon Automated Retail Vending Machine Locations",
    "address": "1799 Marlow Rd,Santa Rosa, CA",
    "lat": 38.4520542,
    "lng": -122.752896
  },
  {
    "state": "California Pokémon Automated Retail Vending Machine Locations",
    "address": "100 Calistoga Rd,Santa Rosa, CA",
    "lat": 38.4656768,
    "lng": -122.6516753
  },
  {
    "state": "California Pokémon Automated Retail Vending Machine Locations",
    "address": "2300 Mendocino Ave,Santa Rosa, CA",
    "lat": 38.4628265,
    "lng": -122.7170787
  },
  {
    "state": "California Pokémon Automated Retail Vending Machine Locations",
    "address": "2751 4th St,Santa Rosa, CA",
    "lat": 38.4509085,
    "lng": -122.6910424
  },
  {
    "state": "California Pokémon Automated Retail Vending Machine Locations",
    "address": "2055 Sebastopol Rd,Santa Rosa, CA",
    "lat": 38.4273475,
    "lng": -122.7434495
  },
  {
    "state": "California Pokémon Automated Retail Vending Machine Locations",
    "address": "1211 W College Ave,Santa Rosa, CA",
    "lat": 38.446762,
    "lng": -122.7416052
  },
  {
    "state": "California Pokémon Automated Retail Vending Machine Locations",
    "address": "2785 Yulupa Ave,Santa Rosa, CA",
    "lat": 38.4257379,
    "lng": -122.6685377
  },
  {
    "state": "California Pokémon Automated Retail Vending Machine Locations",
    "address": "9643 Mission Gorge Rd,Santee, CA",
    "lat": 32.8373352,
    "lng": -116.9871021
  },
  {
    "state": "California Pokémon Automated Retail Vending Machine Locations",
    "address": "12876 Saratoga Sunnyvale Rd,Saratoga, CA",
    "lat": 37.2812319,
    "lng": -122.0310922
  },
  {
    "state": "California Pokémon Automated Retail Vending Machine Locations",
    "address": "26518 Bouquet Canyon Rd,Saugus, CA",
    "lat": 34.427021,
    "lng": -118.5352017
  },
  {
    "state": "California Pokémon Automated Retail Vending Machine Locations",
    "address": "253 Mt Hermon Rd,Scotts Valley, CA",
    "lat": 37.0462361,
    "lng": -122.0310922
  },
  {
    "state": "California Pokémon Automated Retail Vending Machine Locations",
    "address": "406 N Main St,Sebastopol, CA",
    "lat": 38.4044524,
    "lng": -122.8270548
  },
  {
    "state": "California Pokémon Automated Retail Vending Machine Locations",
    "address": "14845 Ventura Blvd,Sherman Oaks, CA",
    "lat": 34.1533464,
    "lng": -118.4566397
  },
  {
    "state": "California Pokémon Automated Retail Vending Machine Locations",
    "address": "1268 Madera Rd,Simi Valley, CA",
    "lat": 34.2616858,
    "lng": -118.7946734
  },
  {
    "state": "California Pokémon Automated Retail Vending Machine Locations",
    "address": "1855 Cochran St,Simi Valley, CA",
    "lat": 34.2800151,
    "lng": -118.7624605
  },
  {
    "state": "California Pokémon Automated Retail Vending Machine Locations",
    "address": "2938 Tapo Canyon Rd,Simi Valley, CA",
    "lat": 34.2885635,
    "lng": -118.7156094
  },
  {
    "state": "California Pokémon Automated Retail Vending Machine Locations",
    "address": "477 W Napa St,Sonoma, CA",
    "lat": 38.291594,
    "lng": -122.4677124
  },
  {
    "state": "California Pokémon Automated Retail Vending Machine Locations",
    "address": "30 Chestnut Ave,South San Francisco, CA",
    "lat": 37.6555524,
    "lng": -122.4317324
  },
  {
    "state": "California Pokémon Automated Retail Vending Machine Locations",
    "address": "2255 Gellert Blvd,South San Francisco, CA",
    "lat": 37.6466478,
    "lng": -122.45199
  },
  {
    "state": "California Pokémon Automated Retail Vending Machine Locations",
    "address": "543 Sweetwater Rd,Spring Valley, CA",
    "lat": 32.7082197,
    "lng": -117.0086037
  },
  {
    "state": "California Pokémon Automated Retail Vending Machine Locations",
    "address": "24975 Pico Canyon Rd,Stevenson Ranch, CA",
    "lat": 34.382699,
    "lng": -118.5744229
  },
  {
    "state": "California Pokémon Automated Retail Vending Machine Locations",
    "address": "6445 Pacific Ave,Stockton, CA",
    "lat": 37.9881026,
    "lng": -121.3121064
  },
  {
    "state": "California Pokémon Automated Retail Vending Machine Locations",
    "address": "2808 Country Club Blvd,Stockton, CA",
    "lat": 37.9623201,
    "lng": -121.3375405
  },
  {
    "state": "California Pokémon Automated Retail Vending Machine Locations",
    "address": "639 S Bernardo Ave,Sunnyvale, CA",
    "lat": 37.3729675,
    "lng": -122.0580874
  },
  {
    "state": "California Pokémon Automated Retail Vending Machine Locations",
    "address": "150 E El Camino Real,Sunnyvale, CA",
    "lat": 37.3643643,
    "lng": -122.0306481
  },
  {
    "state": "California Pokémon Automated Retail Vending Machine Locations",
    "address": "40435 Winchester Rd,Temecula, CA",
    "lat": 33.5306272,
    "lng": -117.154063
  },
  {
    "state": "California Pokémon Automated Retail Vending Machine Locations",
    "address": "33145 Temecula Pkwy,Temecula, CA",
    "lat": 33.4844405,
    "lng": -117.079684
  },
  {
    "state": "California Pokémon Automated Retail Vending Machine Locations",
    "address": "2048 E Avenida de Los Arboles,Thousand Oaks, CA",
    "lat": 34.2099857,
    "lng": -118.8408366
  },
  {
    "state": "California Pokémon Automated Retail Vending Machine Locations",
    "address": "1790 N Moorpark Rd,Thousand Oaks, CA",
    "lat": 34.2015085,
    "lng": -118.8667803
  },
  {
    "state": "California Pokémon Automated Retail Vending Machine Locations",
    "address": "4705 Torrance Blvd,Torrance, CA",
    "lat": 33.8383151,
    "lng": -118.3636351
  },
  {
    "state": "California Pokémon Automated Retail Vending Machine Locations",
    "address": "24325 Crenshaw Blvd,Torrance, CA",
    "lat": 33.8036517,
    "lng": -118.3295043
  },
  {
    "state": "California Pokémon Automated Retail Vending Machine Locations",
    "address": "1801 W 11th St,Tracy, CA",
    "lat": 37.7400828,
    "lng": -121.4493674
  },
  {
    "state": "California Pokémon Automated Retail Vending Machine Locations",
    "address": "2850 Pavilion Pkwy,Tracy, CA",
    "lat": 37.7589736,
    "lng": -121.4684728
  },
  {
    "state": "California Pokémon Automated Retail Vending Machine Locations",
    "address": "13270 Newport Ave,Tustin, CA",
    "lat": 33.7452048,
    "lng": -117.8128436
  },
  {
    "state": "California Pokémon Automated Retail Vending Machine Locations",
    "address": "1790 Decoto Rd,Union City, CA",
    "lat": 37.5876275,
    "lng": -122.0193684
  },
  {
    "state": "California Pokémon Automated Retail Vending Machine Locations",
    "address": "1910 N Campus Ave,Upland, CA",
    "lat": 34.1311847,
    "lng": -117.637641
  },
  {
    "state": "California Pokémon Automated Retail Vending Machine Locations",
    "address": "81 W Foothill Blvd,Upland, CA",
    "lat": 34.1082225,
    "lng": -117.6528715
  },
  {
    "state": "California Pokémon Automated Retail Vending Machine Locations",
    "address": "2090 Harbison Dr,Vacaville, CA",
    "lat": 38.3620536,
    "lng": -121.9616797
  },
  {
    "state": "California Pokémon Automated Retail Vending Machine Locations",
    "address": "23850 Copper Hill Dr,Valencia, CA",
    "lat": 34.4620845,
    "lng": -118.556635
  },
  {
    "state": "California Pokémon Automated Retail Vending Machine Locations",
    "address": "25850 The Old Rd,Valencia, CA",
    "lat": 34.3911952,
    "lng": -118.5720926
  },
  {
    "state": "California Pokémon Automated Retail Vending Machine Locations",
    "address": "122 Robles Way,Vallejo, CA",
    "lat": 38.0845022,
    "lng": -122.2104312
  },
  {
    "state": "California Pokémon Automated Retail Vending Machine Locations",
    "address": "16530 Sherman Way,Van Nuys, CA",
    "lat": 34.2007069,
    "lng": -118.4941865
  },
  {
    "state": "California Pokémon Automated Retail Vending Machine Locations",
    "address": "115 W Main St,Ventura, CA",
    "lat": 34.2822708,
    "lng": -119.302335
  },
  {
    "state": "California Pokémon Automated Retail Vending Machine Locations",
    "address": "1301 E Vista Way,Vista, CA",
    "lat": 33.2182665,
    "lng": -117.2243439
  },
  {
    "state": "California Pokémon Automated Retail Vending Machine Locations",
    "address": "1601 S Melrose Dr,Vista, CA",
    "lat": 33.1659525,
    "lng": -117.2474028
  },
  {
    "state": "California Pokémon Automated Retail Vending Machine Locations",
    "address": "2800 Ygnacio Valley Rd,Walnut Creek, CA",
    "lat": 37.9275313,
    "lng": -122.0176797
  },
  {
    "state": "California Pokémon Automated Retail Vending Machine Locations",
    "address": "615 N Azusa Ave,West Covina, CA",
    "lat": 34.0816558,
    "lng": -117.9093383
  },
  {
    "state": "California Pokémon Automated Retail Vending Machine Locations",
    "address": "8969 Santa Monica Blvd,West Hollywood, CA",
    "lat": 34.083698,
    "lng": -118.3867339
  },
  {
    "state": "California Pokémon Automated Retail Vending Machine Locations",
    "address": "6755 Westminster Blvd.,Westminster, CA",
    "lat": 33.7604604,
    "lng": -118.0089116
  },
  {
    "state": "California Pokémon Automated Retail Vending Machine Locations",
    "address": "15740 La Forge St,Whittier, CA",
    "lat": 33.9409539,
    "lng": -117.9943627
  },
  {
    "state": "California Pokémon Automated Retail Vending Machine Locations",
    "address": "336 W Anaheim St,Wilmington, CA",
    "lat": 33.778677,
    "lng": -118.2655443
  },
  {
    "state": "California Pokémon Automated Retail Vending Machine Locations",
    "address": "9080 Brooks Rd S,Windsor, CA",
    "lat": 38.5505719,
    "lng": -122.8066864
  },
  {
    "state": "California Pokémon Automated Retail Vending Machine Locations",
    "address": "20445 Yorba Linda Blvd,Yorba Linda, CA",
    "lat": 33.8932942,
    "lng": -117.7757264
  },
  {
    "state": "California Pokémon Automated Retail Vending Machine Locations",
    "address": "33644 Yucaipa Blvd,Yucaipa, CA",
    "lat": 34.0342329,
    "lng": -117.0695304
  },
  {
    "state": "Colorado Pokémon Automated Retail Vending Machine Locations",
    "address": "12350 W 64th Ave,Arvada, CO",
    "lat": 39.8111941,
    "lng": -105.1365857
  },
  {
    "state": "Colorado Pokémon Automated Retail Vending Machine Locations",
    "address": "8031 Wadsworth Blvd,Arvada, CO",
    "lat": 39.8434311,
    "lng": -105.0838725
  },
  {
    "state": "Colorado Pokémon Automated Retail Vending Machine Locations",
    "address": "15200 W 64th Ave,Arvada, CO",
    "lat": 39.8106276,
    "lng": -105.1719422
  },
  {
    "state": "Colorado Pokémon Automated Retail Vending Machine Locations",
    "address": "6350 Sheridan Boulevard,Arvada, CO",
    "lat": 39.8110721,
    "lng": -105.0515405
  },
  {
    "state": "Colorado Pokémon Automated Retail Vending Machine Locations",
    "address": "9731 W 58th Ave,Arvada, CO",
    "lat": 39.8031326,
    "lng": -105.1067098
  },
  {
    "state": "Colorado Pokémon Automated Retail Vending Machine Locations",
    "address": "8055 Sheridan Boulevard,Arvada, CO",
    "lat": 39.8435809,
    "lng": -105.0568427
  },
  {
    "state": "Colorado Pokémon Automated Retail Vending Machine Locations",
    "address": "3050 S Peoria St,Aurora, CO",
    "lat": 39.66119,
    "lng": -104.8445708
  },
  {
    "state": "Colorado Pokémon Automated Retail Vending Machine Locations",
    "address": "15250 E Mississippi Ave,Aurora, CO",
    "lat": 39.6951005,
    "lng": -104.8109431
  },
  {
    "state": "Colorado Pokémon Automated Retail Vending Machine Locations",
    "address": "655 Peoria St,Aurora, CO",
    "lat": 39.7266239,
    "lng": -104.8494966
  },
  {
    "state": "Colorado Pokémon Automated Retail Vending Machine Locations",
    "address": "25701 E Smoky Hill Rd,Aurora, CO",
    "lat": 39.5875966,
    "lng": -104.6871269
  },
  {
    "state": "Colorado Pokémon Automated Retail Vending Machine Locations",
    "address": "1677 S Havana St,Aurora, CO",
    "lat": 39.6866906,
    "lng": -104.867718
  },
  {
    "state": "Colorado Pokémon Automated Retail Vending Machine Locations",
    "address": "12200 E Mississippi Ave,Aurora, CO",
    "lat": 39.6960815,
    "lng": -104.8452795
  },
  {
    "state": "Colorado Pokémon Automated Retail Vending Machine Locations",
    "address": "6100 S Gun Club Rd,Aurora, CO",
    "lat": 39.604759,
    "lng": -104.7148374
  },
  {
    "state": "Colorado Pokémon Automated Retail Vending Machine Locations",
    "address": "18730 E Hampden Ave,Aurora, CO",
    "lat": 39.6513006,
    "lng": -104.7697785
  },
  {
    "state": "Colorado Pokémon Automated Retail Vending Machine Locations",
    "address": "1200 S Buckley Rd,Aurora, CO",
    "lat": 39.6946318,
    "lng": -104.7889729
  },
  {
    "state": "Colorado Pokémon Automated Retail Vending Machine Locations",
    "address": "18211 E Hampden Ave,Aurora, CO",
    "lat": 39.655105,
    "lng": -104.776164
  },
  {
    "state": "Colorado Pokémon Automated Retail Vending Machine Locations",
    "address": "17000 E Iliff Ave,Aurora, CO",
    "lat": 39.6722383,
    "lng": -104.7896533
  },
  {
    "state": "Colorado Pokémon Automated Retail Vending Machine Locations",
    "address": "4271 S Buckley Rd,Aurora, CO",
    "lat": 39.6393879,
    "lng": -104.7934826
  },
  {
    "state": "Colorado Pokémon Automated Retail Vending Machine Locations",
    "address": "1155 S Havana St,Aurora, CO",
    "lat": 39.6958005,
    "lng": -104.8664865
  },
  {
    "state": "Colorado Pokémon Automated Retail Vending Machine Locations",
    "address": "6412 S Parker Rd,Aurora, CO",
    "lat": 39.6001698,
    "lng": -104.8030488
  },
  {
    "state": "Colorado Pokémon Automated Retail Vending Machine Locations",
    "address": "3325 28th St,Boulder, CO",
    "lat": 40.0353313,
    "lng": -105.2602617
  },
  {
    "state": "Colorado Pokémon Automated Retail Vending Machine Locations",
    "address": "1650 30th St,Boulder, CO",
    "lat": 40.0158034,
    "lng": -105.2517897
  },
  {
    "state": "Colorado Pokémon Automated Retail Vending Machine Locations",
    "address": "4800 E Baseline Rd,Boulder, CO",
    "lat": 40.0002705,
    "lng": -105.0468476
  },
  {
    "state": "Colorado Pokémon Automated Retail Vending Machine Locations",
    "address": "2798 Arapahoe Ave,Boulder, CO",
    "lat": 40.0137992,
    "lng": -105.2608066
  },
  {
    "state": "Colorado Pokémon Automated Retail Vending Machine Locations",
    "address": "100 N 50th Ave,Brighton, CO",
    "lat": 39.9888822,
    "lng": -104.7497281
  },
  {
    "state": "Colorado Pokémon Automated Retail Vending Machine Locations",
    "address": "1150 US-287,Broomfield, CO",
    "lat": 39.9332002,
    "lng": -105.0880744
  },
  {
    "state": "Colorado Pokémon Automated Retail Vending Machine Locations",
    "address": "12167 Sheridan Boulevard,Broomfield, CO",
    "lat": 39.9170996,
    "lng": -105.0555588
  },
  {
    "state": "Colorado Pokémon Automated Retail Vending Machine Locations",
    "address": "2355 W 136th Ave,Broomfield, CO",
    "lat": 39.94409,
    "lng": -105.0141018
  },
  {
    "state": "Colorado Pokémon Automated Retail Vending Machine Locations",
    "address": "3602 W 144th Ave,Broomfield, CO",
    "lat": 39.9564919,
    "lng": -105.0354682
  },
  {
    "state": "Colorado Pokémon Automated Retail Vending Machine Locations",
    "address": "7284 Lagae Rd,Castle Pines, CO",
    "lat": 39.4685495,
    "lng": -104.879577
  },
  {
    "state": "Colorado Pokémon Automated Retail Vending Machine Locations",
    "address": "750 N Ridge Rd,Castle Rock, CO",
    "lat": 39.3746415,
    "lng": -104.8273095
  },
  {
    "state": "Colorado Pokémon Automated Retail Vending Machine Locations",
    "address": "880 S Perry St,Castle Rock, CO",
    "lat": 39.3619974,
    "lng": -104.8609679
  },
  {
    "state": "Colorado Pokémon Automated Retail Vending Machine Locations",
    "address": "8200 S Holly St,Centennial, CO",
    "lat": 39.5671776,
    "lng": -104.922629
  },
  {
    "state": "Colorado Pokémon Automated Retail Vending Machine Locations",
    "address": "7575 S University Blvd,Centennial, CO",
    "lat": 39.5785509,
    "lng": -104.9614283
  },
  {
    "state": "Colorado Pokémon Automated Retail Vending Machine Locations",
    "address": "7375 E Arapahoe Rd,Centennial, CO",
    "lat": 39.5963715,
    "lng": -104.9034805
  },
  {
    "state": "Colorado Pokémon Automated Retail Vending Machine Locations",
    "address": "6930 N Academy Blvd,Colorado Springs, CO",
    "lat": 38.9390465,
    "lng": -104.7999007
  },
  {
    "state": "Colorado Pokémon Automated Retail Vending Machine Locations",
    "address": "3275 W Colorado Ave,Colorado Springs, CO",
    "lat": 38.8548437,
    "lng": -104.8769285
  },
  {
    "state": "Colorado Pokémon Automated Retail Vending Machine Locations",
    "address": "1920 S Nevada Ave,Colorado Springs, CO",
    "lat": 38.8062344,
    "lng": -104.8234084
  },
  {
    "state": "Colorado Pokémon Automated Retail Vending Machine Locations",
    "address": "5060 N Academy Blvd,Colorado Springs, CO",
    "lat": 38.9068578,
    "lng": -104.7824821
  },
  {
    "state": "Colorado Pokémon Automated Retail Vending Machine Locations",
    "address": "2210 N Wahsatch Ave,Colorado Springs, CO",
    "lat": 38.8646262,
    "lng": -104.8172815
  },
  {
    "state": "Colorado Pokémon Automated Retail Vending Machine Locations",
    "address": "6520 S Academy Blvd,Colorado Springs, CO",
    "lat": 38.7674556,
    "lng": -104.8150018
  },
  {
    "state": "Colorado Pokémon Automated Retail Vending Machine Locations",
    "address": "2890 N Powers Blvd,Colorado Springs, CO",
    "lat": 38.8737349,
    "lng": -104.7223811
  },
  {
    "state": "Colorado Pokémon Automated Retail Vending Machine Locations",
    "address": "1121 N Circle Dr,Colorado Springs, CO",
    "lat": 38.8484373,
    "lng": -104.7723255
  },
  {
    "state": "Colorado Pokémon Automated Retail Vending Machine Locations",
    "address": "3620 Austin Bluffs Pkwy,Colorado Springs, CO",
    "lat": 38.8920941,
    "lng": -104.7610271
  },
  {
    "state": "Colorado Pokémon Automated Retail Vending Machine Locations",
    "address": "7055 Austin Bluffs Pkwy,Colorado Springs, CO",
    "lat": 38.9325985,
    "lng": -104.7387593
  },
  {
    "state": "Colorado Pokémon Automated Retail Vending Machine Locations",
    "address": "840 Village Center Dr,Colorado Springs, CO",
    "lat": 38.9238733,
    "lng": -104.8444735
  },
  {
    "state": "Colorado Pokémon Automated Retail Vending Machine Locations",
    "address": "1425 S Murray Blvd,Colorado Springs, CO",
    "lat": 38.8124465,
    "lng": -104.7464426
  },
  {
    "state": "Colorado Pokémon Automated Retail Vending Machine Locations",
    "address": "3570 Hartsel Dr,Colorado Springs, CO",
    "lat": 38.9400951,
    "lng": -104.7602979
  },
  {
    "state": "Colorado Pokémon Automated Retail Vending Machine Locations",
    "address": "4850 E 62nd Ave,Commerce City, CO",
    "lat": 39.808747,
    "lng": -104.9301075
  },
  {
    "state": "Colorado Pokémon Automated Retail Vending Machine Locations",
    "address": "15051 E 104th Ave,Commerce City, CO",
    "lat": 39.8874933,
    "lng": -104.8109439
  },
  {
    "state": "Colorado Pokémon Automated Retail Vending Machine Locations",
    "address": "27152 Main St,Conifer, CO",
    "lat": 39.5272844,
    "lng": -105.3034
  },
  {
    "state": "Colorado Pokémon Automated Retail Vending Machine Locations",
    "address": "3100 S Sheridan Blvd,Denver, CO",
    "lat": 39.6560037,
    "lng": -105.0508573
  },
  {
    "state": "Colorado Pokémon Automated Retail Vending Machine Locations",
    "address": "5125 W Florida Ave,Denver, CO",
    "lat": 39.6907256,
    "lng": -105.0520419
  },
  {
    "state": "Colorado Pokémon Automated Retail Vending Machine Locations",
    "address": "1575 W 84th Ave,Denver, CO",
    "lat": 39.8503795,
    "lng": -105.0046816
  },
  {
    "state": "Colorado Pokémon Automated Retail Vending Machine Locations",
    "address": "825 S Colorado Blvd,Denver, CO",
    "lat": 39.7017587,
    "lng": -104.9411669
  },
  {
    "state": "Colorado Pokémon Automated Retail Vending Machine Locations",
    "address": "2727 W Evans Ave,Denver, CO",
    "lat": 39.67982550000001,
    "lng": -105.021041
  },
  {
    "state": "Colorado Pokémon Automated Retail Vending Machine Locations",
    "address": "890 S Monaco St Pkwy,Denver, CO",
    "lat": 39.7010176,
    "lng": -104.911327
  },
  {
    "state": "Colorado Pokémon Automated Retail Vending Machine Locations",
    "address": "2750 S Colorado Blvd,Denver, CO",
    "lat": 39.666764,
    "lng": -104.9368776
  },
  {
    "state": "Colorado Pokémon Automated Retail Vending Machine Locations",
    "address": "1355 Krameria St,Denver, CO",
    "lat": 39.7376309,
    "lng": -104.9175966
  },
  {
    "state": "Colorado Pokémon Automated Retail Vending Machine Locations",
    "address": "10406 M.L.K. Jr Blvd,Denver, CO",
    "lat": 39.7595228,
    "lng": -104.86665
  },
  {
    "state": "Colorado Pokémon Automated Retail Vending Machine Locations",
    "address": "1653 S Colorado Blvd,Denver, CO",
    "lat": 39.6867716,
    "lng": -104.9424446
  },
  {
    "state": "Colorado Pokémon Automated Retail Vending Machine Locations",
    "address": "2150 S Downing St,Denver, CO",
    "lat": 39.6776747,
    "lng": -104.9728461
  },
  {
    "state": "Colorado Pokémon Automated Retail Vending Machine Locations",
    "address": "200 Quebec St,Denver, CO",
    "lat": 39.720276,
    "lng": -104.901229
  },
  {
    "state": "Colorado Pokémon Automated Retail Vending Machine Locations",
    "address": "6460 E Yale Ave,Denver, CO",
    "lat": 39.6659849,
    "lng": -104.9138125
  },
  {
    "state": "Colorado Pokémon Automated Retail Vending Machine Locations",
    "address": "6220 E 14th Ave,Denver, CO",
    "lat": 39.737212,
    "lng": -104.9156076
  },
  {
    "state": "Colorado Pokémon Automated Retail Vending Machine Locations",
    "address": "2660 N Federal Blvd,Denver, CO",
    "lat": 39.7556009,
    "lng": -105.0246933
  },
  {
    "state": "Colorado Pokémon Automated Retail Vending Machine Locations",
    "address": "3800 W 44th Ave,Denver, CO",
    "lat": 39.7762025,
    "lng": -105.0369768
  },
  {
    "state": "Colorado Pokémon Automated Retail Vending Machine Locations",
    "address": "757 E 20th Ave,Denver, CO",
    "lat": 39.7484455,
    "lng": -104.977402
  },
  {
    "state": "Colorado Pokémon Automated Retail Vending Machine Locations",
    "address": "1331 Speer Blvd,Denver, CO",
    "lat": 39.73730219999999,
    "lng": -104.9978168
  },
  {
    "state": "Colorado Pokémon Automated Retail Vending Machine Locations",
    "address": "323 S Broadway,Denver, CO",
    "lat": 39.7106302,
    "lng": -104.9888127
  },
  {
    "state": "Colorado Pokémon Automated Retail Vending Machine Locations",
    "address": "1725 Sheridan Boulevard,Edgewater, CO",
    "lat": 39.74624230000001,
    "lng": -105.0550108
  },
  {
    "state": "Colorado Pokémon Automated Retail Vending Machine Locations",
    "address": "220 S Elizabeth St,Elizabeth, CO",
    "lat": 39.359958,
    "lng": -104.6100129
  },
  {
    "state": "Colorado Pokémon Automated Retail Vending Machine Locations",
    "address": "101 Englewood Pkwy,Englewood, CO",
    "lat": 39.65575920000001,
    "lng": -104.9894517
  },
  {
    "state": "Colorado Pokémon Automated Retail Vending Machine Locations",
    "address": "3495 S University Blvd,Englewood, CO",
    "lat": 39.6537035,
    "lng": -104.9606361
  },
  {
    "state": "Colorado Pokémon Automated Retail Vending Machine Locations",
    "address": "3851 S Hwy 74,Evergreen, CO",
    "lat": 39.6333213,
    "lng": -105.3172146
  },
  {
    "state": "Colorado Pokémon Automated Retail Vending Machine Locations",
    "address": "7655 McLaughlin Rd,Falcon, CO",
    "lat": 38.94151360000001,
    "lng": -104.6014928
  },
  {
    "state": "Colorado Pokémon Automated Retail Vending Machine Locations",
    "address": "8134 Colorado Blvd,Firestone, CO",
    "lat": 40.1192062,
    "lng": -104.9397067
  },
  {
    "state": "Colorado Pokémon Automated Retail Vending Machine Locations",
    "address": "2535 S College Ave,Fort Collins, CO",
    "lat": 40.554117,
    "lng": -105.0789845
  },
  {
    "state": "Colorado Pokémon Automated Retail Vending Machine Locations",
    "address": "2160 W Drake Rd,Fort Collins, CO",
    "lat": 40.5546594,
    "lng": -105.1165765
  },
  {
    "state": "Colorado Pokémon Automated Retail Vending Machine Locations",
    "address": "3657 S College Ave,Fort Collins, CO",
    "lat": 40.5369231,
    "lng": -105.077736
  },
  {
    "state": "Colorado Pokémon Automated Retail Vending Machine Locations",
    "address": "1300 Dexter St,Fort Lupton, CO",
    "lat": 40.0789504,
    "lng": -104.8026005
  },
  {
    "state": "Colorado Pokémon Automated Retail Vending Machine Locations",
    "address": "6925 Mesa Ridge Pkwy,Fountain, CO",
    "lat": 38.7163261,
    "lng": -104.6989612
  },
  {
    "state": "Colorado Pokémon Automated Retail Vending Machine Locations",
    "address": "5801 Silverstone Dr,Frederick, CO",
    "lat": 40.0885261,
    "lng": -104.9430651
  },
  {
    "state": "Colorado Pokémon Automated Retail Vending Machine Locations",
    "address": "4600 Leetsdale Dr,Glendale, CO",
    "lat": 39.7084673,
    "lng": -104.9326797
  },
  {
    "state": "Colorado Pokémon Automated Retail Vending Machine Locations",
    "address": "17171 S Golden Rd,Golden, CO",
    "lat": 39.7394054,
    "lng": -105.1929718
  },
  {
    "state": "Colorado Pokémon Automated Retail Vending Machine Locations",
    "address": "1701 Jackson St,Golden, CO",
    "lat": 39.75220729999999,
    "lng": -105.2155499
  },
  {
    "state": "Colorado Pokémon Automated Retail Vending Machine Locations",
    "address": "2100 35th Ave,Greeley, CO",
    "lat": 40.4047742,
    "lng": -104.7330443
  },
  {
    "state": "Colorado Pokémon Automated Retail Vending Machine Locations",
    "address": "4548 Centerplace Dr,Greeley, CO",
    "lat": 40.3943255,
    "lng": -104.7527285
  },